"raw_city","country","checkins_count","all_raw_count","lat","lng","first_checkin_utc","last_checkin_utc","low_volume_checkins_count","low_volume_checkin_names","low_volume_checkins_detail","normalized_name","decision_source","suggested_target","resolved_city","distance_to_target_km","timeline_overlap","review","comment"
"Lin","Albania","1","1","41.0892","20.6069","2024-08-01T12:53:56Z","2024-08-01T12:53:56Z","1","Dogana Qafe Thane","2024-08-01T12:53:56Z::Dogana Qafe Thane","lin","PASS_THROUGH_SINGLETON","","Lin","0","OVERLAP","ACCURATE","Keep 'Lin' as canonical city via PASS_THROUGH_SINGLETON; timeline=OVERLAP."
"(BLANK_CITY) [Albania] -> Tirana","Albania","7","0","41.424237","19.807369","2024-08-01T13:03:56Z","2024-08-04T18:06:10Z","7","Albania (Shqipëria) | Tuneli I Krrabës (Tr) | Ali Demi | Rruga George W. Bush | Lej & Laj | Parku Kombetar Mali I Dajtit | Heronjtë E Vigut","2024-08-01T13:03:56Z::Albania (Shqipëria) || 2024-08-01T14:46:04Z::Tuneli I Krrabës (Tr) || 2024-08-01T18:04:40Z::Ali Demi || 2024-08-01T18:29:53Z::Rruga George W. Bush || 2024-08-02T09:54:59Z::Lej & Laj || 2024-08-02T12:15:40Z::Parku Kombetar Mali I Dajtit || 2024-08-04T18:06:10Z::Heronjtë E Vigut","blank city albania tirana","BLANK_CITY_INFERRED","Tirana","Tirana","11.118","OVERLAP","NEEDS_HUMAN_ATTENTION","Inferred blank city rows -> 'Tirana' using country + coordinates + timeline; distance=11.118 km; timeline=OVERLAP."
"Lundër 1","Albania","2","2","41.2816","19.8569","2024-08-01T15:10:50Z","2024-08-04T14:43:05Z","2","Autobus #2","2024-08-01T15:10:50Z::Autobus #2 || 2024-08-04T14:43:05Z::Autobus #2","lunder 1","EXPLICIT_MAP","Tirana","Tirana","5.479","OVERLAP","ACCURATE","Merge 'Lundër 1' -> 'Tirana' via EXPLICIT_MAP; distance=5.479 km; timeline=OVERLAP."
"Tirana","Albania","107","107","41.3253","19.8266","2024-08-01T14:57:47Z","2024-08-04T15:29:33Z","0","","","tirana","PASS_THROUGH_SINGLETON","","Tirana","0","OVERLAP","ACCURATE","Keep 'Tirana' as canonical city via PASS_THROUGH_SINGLETON; timeline=OVERLAP."
"Tirana District","Albania","2","2","41.3064","19.8376","2024-08-01T15:15:08Z","2024-08-04T15:49:33Z","2","Tirana (Tiranë) | Bus Tirana - Budva","2024-08-01T15:15:08Z::Tirana (Tiranë) || 2024-08-04T15:49:33Z::Bus Tirana - Budva","tirana district","EXPLICIT_MAP","Tirana","Tirana","2.294","OVERLAP","ACCURATE","Merge 'Tirana District' -> 'Tirana' via EXPLICIT_MAP; distance=2.294 km; timeline=OVERLAP."
"(BLANK_CITY) [Argentina] -> Buenos Aires","Argentina","10","0","-34.598717","-58.391614","2024-12-04T19:37:13Z","2024-12-11T22:59:51Z","10","Argentina | Buenos Aires | Monumento a Bernardo De Irigoyen | Arco Chino | Plaza De Las Americas | Parroquia Madre Admirable | Vista al Río de la Plata | Monumento Espigon ""Plus Ultra"" | Monumento Canto al Trabajo | Salsa Criolla","2024-12-04T19:37:13Z::Argentina || 2024-12-07T04:26:36Z::Buenos Aires || 2024-12-07T18:11:27Z::Monumento a Bernardo De Irigoyen || 2024-12-09T20:47:45Z::Arco Chino || 2024-12-09T22:35:31Z::Plaza De Las Americas || 2024-12-11T19:39:48Z::Parroquia Madre Admirable || 2024-12-11T21:17:12Z::Vista al Río de la Plata || 2024-12-11T21:54:06Z::Monumento Espigon ""Plus Ultra"" || 2024-12-11T22:45:04Z::Monumento Canto al Trabajo || 2024-12-11T22:59:51Z::Salsa Criolla","blank city argentina buenos aires","BLANK_CITY_INFERRED","Buenos Aires","Buenos Aires","0.429","OVERLAP","ACCURATE","Inferred blank city rows -> 'Buenos Aires' using country + coordinates + timeline; distance=0.429 km; timeline=OVERLAP."
"(BLANK_CITY) [Argentina] -> Capital Federal","Argentina","4","0","-34.576212","-58.41284","2024-12-10T18:55:06Z","2024-12-10T22:19:58Z","4","Monumento a Guiseppe Garibaldi | Pergola Del Lago | Fuente Riqueza Agropecuaria Argentina | Monumento del Inca Garcilaso de la Vega","2024-12-10T18:55:06Z::Monumento a Guiseppe Garibaldi || 2024-12-10T21:18:07Z::Pergola Del Lago || 2024-12-10T22:10:07Z::Fuente Riqueza Agropecuaria Argentina || 2024-12-10T22:19:58Z::Monumento del Inca Garcilaso de la Vega","blank city argentina capital federal","BLANK_CITY_INFERRED","Capital Federal","Buenos Aires","2.923","OVERLAP","ACCURATE","Inferred blank city rows -> 'Buenos Aires' using country + coordinates + timeline; distance=2.923 km; timeline=OVERLAP."
"(BLANK_CITY) [Argentina] -> Retiro","Argentina","1","0","-34.589985","-58.37196","2024-12-08T16:28:53Z","2024-12-08T16:28:53Z","1","Totem Kwa'Guilth","2024-12-08T16:28:53Z::Totem Kwa'Guilth","blank city argentina retiro","BLANK_CITY_INFERRED","Retiro","Buenos Aires","2.43","OVERLAP","ACCURATE","Inferred blank city rows -> 'Buenos Aires' using country + coordinates + timeline; distance=2.43 km; timeline=OVERLAP."
"(BLANK_CITY) [Argentina] -> San Telmo","Argentina","4","0","-34.614407","-58.366997","2024-12-07T22:26:34Z","2024-12-08T22:22:49Z","4","Tangueando en Plaza Dorrego | Rio Darsena Sul | Fogata | Monumento Canto al Trabajo","2024-12-07T22:26:34Z::Tangueando en Plaza Dorrego || 2024-12-08T20:34:30Z::Rio Darsena Sul || 2024-12-08T20:58:58Z::Fogata || 2024-12-08T22:22:49Z::Monumento Canto al Trabajo","blank city argentina san telmo","BLANK_CITY_INFERRED","San Telmo","Buenos Aires","3.2","OVERLAP","ACCURATE","Inferred blank city rows -> 'Buenos Aires' using country + coordinates + timeline; distance=3.2 km; timeline=OVERLAP."
"AAQ","Argentina","1","1","-34.5865","-58.3909","2024-12-11T18:40:32Z","2024-12-11T18:40:32Z","1","Estatua De Eros","2024-12-11T18:40:32Z::Estatua De Eros","aaq","EXPLICIT_MAP","Buenos Aires","Buenos Aires","1.444","OVERLAP","ACCURATE","Merge 'AAQ' -> 'Buenos Aires' via EXPLICIT_MAP; distance=1.444 km; timeline=OVERLAP."
"Balvanera","Argentina","1","1","-34.6067","-58.3938","2024-12-07T16:05:44Z","2024-12-07T16:05:44Z","1","Dia %","2024-12-07T16:05:44Z::Dia %","balvanera","EXPLICIT_MAP","Buenos Aires","Buenos Aires","0.919","OVERLAP","ACCURATE","Merge 'Balvanera' -> 'Buenos Aires' via EXPLICIT_MAP; distance=0.919 km; timeline=OVERLAP."
"Belgrano","Argentina","1","1","-34.5619","-58.4587","2024-12-09T18:58:30Z","2024-12-09T18:58:30Z","1","Plaza Noruega","2024-12-09T18:58:30Z::Plaza Noruega","belgrano","EXPLICIT_MAP","Buenos Aires","Buenos Aires","7.027","OVERLAP","ACCURATE","Merge 'Belgrano' -> 'Buenos Aires' via EXPLICIT_MAP; distance=7.027 km; timeline=OVERLAP."
"Belgrano C","Argentina","1","1","-34.5619","-58.4552","2024-12-09T19:16:46Z","2024-12-09T19:16:46Z","1","Parroquia Inmaculada Concepción","2024-12-09T19:16:46Z::Parroquia Inmaculada Concepción","belgrano c","EXPLICIT_MAP","Buenos Aires","Buenos Aires","6.769","OVERLAP","ACCURATE","Merge 'Belgrano C' -> 'Buenos Aires' via EXPLICIT_MAP; distance=6.769 km; timeline=OVERLAP."
"Buenos Aires","Argentina","310","310","-34.5987","-58.3963","2024-12-07T04:32:10Z","2024-12-13T20:45:04Z","0","","","buenos aires","PASS_THROUGH_SINGLETON","","Buenos Aires","0","OVERLAP","ACCURATE","Keep 'Buenos Aires' as canonical city via PASS_THROUGH_SINGLETON; timeline=OVERLAP."
"Capital Federal","Argentina","3","3","-34.5739","-58.4086","2024-12-08T16:54:50Z","2024-12-10T22:36:45Z","3","Peatonal San Martín | Champs Elysées | Plazoleta Alejandro Petion","2024-12-08T16:54:50Z::Peatonal San Martín || 2024-12-09T21:22:34Z::Champs Elysées || 2024-12-10T22:36:45Z::Plazoleta Alejandro Petion","capital federal","EXPLICIT_MAP","Buenos Aires","Buenos Aires","2.979","OVERLAP","ACCURATE","Merge 'Capital Federal' -> 'Buenos Aires' via EXPLICIT_MAP; distance=2.979 km; timeline=OVERLAP."
"Chacarita","Argentina","1","1","-34.5917","-58.4476","2024-12-10T01:08:17Z","2024-12-10T01:08:17Z","1","Estación Dorrego [Línea B]","2024-12-10T01:08:17Z::Estación Dorrego [Línea B]","chacarita","EXPLICIT_MAP","Buenos Aires","Buenos Aires","4.76","OVERLAP","ACCURATE","Merge 'Chacarita' -> 'Buenos Aires' via EXPLICIT_MAP; distance=4.76 km; timeline=OVERLAP."
"Ciudad Autónoma de Buenos Aire","Argentina","3","3","-34.6057","-58.4228","2024-12-07T17:33:06Z","2024-12-12T22:05:26Z","3","Plazoleta Agustín Rivero Astengo | Plaza Mujica Lainez | Plaza Domingo Olivera","2024-12-07T17:33:06Z::Plazoleta Agustín Rivero Astengo || 2024-12-11T18:16:57Z::Plaza Mujica Lainez || 2024-12-12T22:05:26Z::Plaza Domingo Olivera","ciudad autonoma de buenos aire","EXPLICIT_MAP","Buenos Aires","Buenos Aires","2.547","OVERLAP","ACCURATE","Merge 'Ciudad Autónoma de Buenos Aire' -> 'Buenos Aires' via EXPLICIT_MAP; distance=2.547 km; timeline=OVERLAP."
"Ciudad de Buenos AIres","Argentina","1","1","-34.5721","-58.4195","2024-12-10T20:06:31Z","2024-12-10T20:06:31Z","1","Monumento a Nicolás Avellaneda","2024-12-10T20:06:31Z::Monumento a Nicolás Avellaneda","ciudad de buenos aires","EXPLICIT_MAP","Buenos Aires","Buenos Aires","3.641","OVERLAP","ACCURATE","Merge 'Ciudad de Buenos AIres' -> 'Buenos Aires' via EXPLICIT_MAP; distance=3.641 km; timeline=OVERLAP."
"Flores","Argentina","1","1","-34.643","-58.4616","2024-12-12T18:54:03Z","2024-12-12T18:54:03Z","1","Estación Plaza de los Virreyes - Eva Perón [Línea E]","2024-12-12T18:54:03Z::Estación Plaza de los Virreyes - Eva Perón [Línea E]","flores","EXPLICIT_MAP","Buenos Aires","Buenos Aires","7.744","OVERLAP","ACCURATE","Merge 'Flores' -> 'Buenos Aires' via EXPLICIT_MAP; distance=7.744 km; timeline=OVERLAP."
"Puerto Madero","Argentina","2","2","-34.6031","-58.3639","2024-12-08T21:11:54Z","2024-12-11T20:45:17Z","2","Parque Mujeres Argentinas | Puente Peatonal","2024-12-08T21:11:54Z::Parque Mujeres Argentinas || 2024-12-11T20:45:17Z::Puente Peatonal","puerto madero","EXPLICIT_MAP","Buenos Aires","Buenos Aires","3.006","OVERLAP","ACCURATE","Merge 'Puerto Madero' -> 'Buenos Aires' via EXPLICIT_MAP; distance=3.006 km; timeline=OVERLAP."
"Retiro","Argentina","2","2","-34.5834","-58.3815","2024-12-08T16:27:06Z","2024-12-13T18:00:56Z","2","Plaza Canadá | AU Dr. Arturo Umberto Illia","2024-12-08T16:27:06Z::Plaza Canadá || 2024-12-13T18:00:56Z::AU Dr. Arturo Umberto Illia","retiro","EXPLICIT_MAP","Buenos Aires","Buenos Aires","2.175","OVERLAP","ACCURATE","Merge 'Retiro' -> 'Buenos Aires' via EXPLICIT_MAP; distance=2.175 km; timeline=OVERLAP."
"San Telmo","Argentina","3","3","-34.6185","-58.3711","2024-12-07T22:21:23Z","2024-12-08T22:32:02Z","3","Calle Defensa | Graffiti Nocturno A Mi Barrio De Aníbal Troilo","2024-12-07T22:21:23Z::Calle Defensa || 2024-12-08T22:29:15Z::Graffiti Nocturno A Mi Barrio De Aníbal Troilo || 2024-12-08T22:32:02Z::Calle Defensa","san telmo","EXPLICIT_MAP","Buenos Aires","Buenos Aires","3.188","OVERLAP","ACCURATE","Merge 'San Telmo' -> 'Buenos Aires' via EXPLICIT_MAP; distance=3.188 km; timeline=OVERLAP."
"Ciudadela","Argentina","1","1","-34.6061","-58.389","2024-12-08T00:19:40Z","2024-12-08T00:19:40Z","1","Carrefour","2024-12-08T00:19:40Z::Carrefour","ciudadela","PASS_THROUGH_SINGLETON","","Ciudadela","0","OVERLAP","ACCURATE","Keep 'Ciudadela' as canonical city via PASS_THROUGH_SINGLETON; timeline=OVERLAP."
"(BLANK_CITY) [Argentina] -> Córdoba","Argentina","2","0","-32.387264","-65.12666","2024-12-05T04:31:54Z","2024-12-05T10:53:02Z","2","Peaje | Córdoba","2024-12-05T04:31:54Z::Peaje || 2024-12-05T10:53:02Z::Córdoba","blank city argentina cordoba","BLANK_CITY_INFERRED","Córdoba","Córdoba","139.552","NO_OVERLAP","NEEDS_HUMAN_ATTENTION","Inferred blank city rows -> 'Córdoba' using country + coordinates + timeline; distance=139.552 km; timeline=NO_OVERLAP."
"Córdoba","Argentina","54","54","-31.4192","-64.1858","2024-12-05T11:06:40Z","2024-12-06T05:56:57Z","0","","","cordoba","PASS_THROUGH_SINGLETON","","Córdoba","0","OVERLAP","ACCURATE","Keep 'Córdoba' as canonical city via PASS_THROUGH_SINGLETON; timeline=OVERLAP."
"La Calera","Argentina","1","1","-31.4267","-64.1755","2024-12-05T20:51:42Z","2024-12-05T20:51:42Z","1","Laguna De Anzenusa","2024-12-05T20:51:42Z::Laguna De Anzenusa","la calera","PASS_THROUGH_SINGLETON","","La Calera","0","OVERLAP","ACCURATE","Keep 'La Calera' as canonical city via PASS_THROUGH_SINGLETON; timeline=OVERLAP."
"(BLANK_CITY) [Argentina] -> Mendoza","Argentina","8","0","-32.890048","-68.840576","2024-12-03T10:07:39Z","2024-12-04T23:57:12Z","8","Mendoza | Abelardo Cafe Vintage | Paseo Antonio Di Benedetto | Arco De La Paz | Roof Top | Caballitos De Marly | Plazoleta Cacique Guaymallén | San Juan Mar Del Plata Mendoza - Cordoba","2024-12-03T10:07:39Z::Mendoza || 2024-12-03T16:02:40Z::Abelardo Cafe Vintage || 2024-12-03T22:45:03Z::Paseo Antonio Di Benedetto || 2024-12-04T00:33:07Z::Arco De La Paz || 2024-12-04T02:59:47Z::Roof Top || 2024-12-04T16:33:59Z::Caballitos De Marly || 2024-12-04T23:26:26Z::Plazoleta Cacique Guaymallén || 2024-12-04T23:57:12Z::San Juan Mar Del Plata Mendoza - Cordoba","blank city argentina mendoza","BLANK_CITY_INFERRED","Mendoza","Mendoza","0.577","OVERLAP","ACCURATE","Inferred blank city rows -> 'Mendoza' using country + coordinates + timeline; distance=0.577 km; timeline=OVERLAP."
"Ciudad","Argentina","2","2","-32.887","-68.8342","2024-12-03T12:31:32Z","2024-12-03T21:13:40Z","2","Claro | Parque O'Higgings","2024-12-03T12:31:32Z::Claro || 2024-12-03T21:13:40Z::Parque O'Higgings","ciudad","EXPLICIT_MAP","Mendoza","Mendoza","1.148","OVERLAP","ACCURATE","Merge 'Ciudad' -> 'Mendoza' via EXPLICIT_MAP; distance=1.148 km; timeline=OVERLAP."
"Las Heras","Argentina","5","5","-32.849","-68.8398","2024-12-04T19:43:56Z","2024-12-04T21:45:38Z","5","Estacion Marcos Burgos | Plazoleta Tommaso Pollicino | Plaza Marcos Burgos (Plaza de Las Heras) | Cafe La martina | Estación Roca [Metrotranvía]","2024-12-04T19:43:56Z::Estacion Marcos Burgos || 2024-12-04T19:51:15Z::Plazoleta Tommaso Pollicino || 2024-12-04T20:00:24Z::Plaza Marcos Burgos (Plaza de Las Heras) || 2024-12-04T20:11:53Z::Cafe La martina || 2024-12-04T21:45:38Z::Estación Roca [Metrotranvía]","las heras","EXPLICIT_MAP","Mendoza","Mendoza","4.413","OVERLAP","ACCURATE","Merge 'Las Heras' -> 'Mendoza' via EXPLICIT_MAP; distance=4.413 km; timeline=OVERLAP."
"M5500GMF","Argentina","2","2","-32.89","-68.8345","2024-12-03T14:38:00Z","2024-12-04T14:05:24Z","2","Laundry Mendoza","2024-12-03T14:38:00Z::Laundry Mendoza || 2024-12-04T14:05:24Z::Laundry Mendoza","m5500gmf","EXPLICIT_MAP","Mendoza","Mendoza","1.127","OVERLAP","ACCURATE","Merge 'M5500GMF' -> 'Mendoza' via EXPLICIT_MAP; distance=1.127 km; timeline=OVERLAP."
"Mendoza","Argentina","47","47","-32.8883","-68.8464","2024-12-03T10:44:04Z","2024-12-05T00:21:10Z","0","","","mendoza","PASS_THROUGH_SINGLETON","","Mendoza","0","OVERLAP","ACCURATE","Keep 'Mendoza' as canonical city via PASS_THROUGH_SINGLETON; timeline=OVERLAP."
"Villa Nueva","Argentina","3","3","-32.8939","-68.8303","2024-12-03T10:08:08Z","2024-12-04T23:30:36Z","3","Terminal de Ómnibus de Mendoza | Canal Cacique Guaymallén","2024-12-03T10:08:08Z::Terminal de Ómnibus de Mendoza || 2024-12-04T23:19:47Z::Canal Cacique Guaymallén || 2024-12-04T23:30:36Z::Terminal de Ómnibus de Mendoza","villa nueva","EXPLICIT_MAP","Mendoza","Mendoza","1.627","OVERLAP","ACCURATE","Merge 'Villa Nueva' -> 'Mendoza' via EXPLICIT_MAP; distance=1.627 km; timeline=OVERLAP."
"Puente del Inca","Argentina","2","2","-32.8212","-69.9234","2024-12-03T06:36:10Z","2024-12-03T10:05:27Z","2","Control Integrado Los Horcones","2024-12-03T06:36:10Z::Control Integrado Los Horcones || 2024-12-03T10:05:27Z::Control Integrado Los Horcones","puente del inca","PASS_THROUGH_SINGLETON","","Puente del Inca","0","OVERLAP","ACCURATE","Keep 'Puente del Inca' as canonical city via PASS_THROUGH_SINGLETON; timeline=OVERLAP."
"(BLANK_CITY) [Argentina] -> Rosario","Argentina","1","0","-32.948269","-60.652311","2024-12-06T11:05:04Z","2024-12-06T11:05:04Z","1","Rosario","2024-12-06T11:05:04Z::Rosario","blank city argentina rosario","BLANK_CITY_INFERRED","Rosario","Rosario","0.664","NO_OVERLAP","ACCURATE","Inferred blank city rows -> 'Rosario' using country + coordinates + timeline; distance=0.664 km; timeline=NO_OVERLAP."
"Rosario","Argentina","53","53","-32.9493","-60.6453","2024-12-06T11:17:09Z","2024-12-07T00:38:12Z","0","","","rosario","PASS_THROUGH_SINGLETON","","Rosario","0","OVERLAP","ACCURATE","Keep 'Rosario' as canonical city via PASS_THROUGH_SINGLETON; timeline=OVERLAP."
"Toledo","Argentina","1","1","-31.54","-63.972","2024-12-06T06:27:33Z","2024-12-06T06:27:33Z","1","Peaje Pilar [AU Rosario - Córdoba]","2024-12-06T06:27:33Z::Peaje Pilar [AU Rosario - Córdoba]","toledo","PASS_THROUGH_SINGLETON","","Toledo","0","OVERLAP","ACCURATE","Keep 'Toledo' as canonical city via PASS_THROUGH_SINGLETON; timeline=OVERLAP."
"Villa Carlos Paz","Argentina","1","1","-31.4236","-64.1866","2024-12-05T22:10:25Z","2024-12-05T22:10:25Z","1","Fuente De Aguas Danzantes","2024-12-05T22:10:25Z::Fuente De Aguas Danzantes","villa carlos paz","PASS_THROUGH_SINGLETON","","Villa Carlos Paz","0","OVERLAP","ACCURATE","Keep 'Villa Carlos Paz' as canonical city via PASS_THROUGH_SINGLETON; timeline=OVERLAP."
"Amberd","Armenia","1","1","40.3885","44.2266","2021-09-10T10:21:02Z","2021-09-10T10:21:02Z","1","Amberd","2021-09-10T10:21:02Z::Amberd","amberd","PASS_THROUGH_SINGLETON","","Amberd","0","OVERLAP","ACCURATE","Keep 'Amberd' as canonical city via PASS_THROUGH_SINGLETON; timeline=OVERLAP."
"(BLANK_CITY) [Armenia] -> Areni","Armenia","4","0","39.754788","45.164265","2021-09-06T06:24:56Z","2021-09-07T15:46:43Z","4","Hell's canyon | Red Canyon | Yerevan-Meghri Highway","2021-09-06T06:24:56Z::Hell's canyon || 2021-09-06T07:48:29Z::Red Canyon || 2021-09-06T12:09:19Z::Yerevan-Meghri Highway || 2021-09-07T15:46:43Z::Yerevan-Meghri Highway","blank city armenia areni","BLANK_CITY_INFERRED","Areni","Areni","3.667","OVERLAP","ACCURATE","Inferred blank city rows -> 'Areni' using country + coordinates + timeline; distance=3.667 km; timeline=OVERLAP."
"Areni","Armenia","4","4","39.729","45.191","2021-09-06T07:21:25Z","2021-09-06T11:25:15Z","4","Areni | Արենի | Areni Winery | Արենիի գինու գործարան | Areni-1 Cave (Արենիի քարանձավ) | Nazaryans' Guesthouse","2021-09-06T07:21:25Z::Areni | Արենի || 2021-09-06T07:22:04Z::Areni Winery | Արենիի գինու գործարան || 2021-09-06T09:08:40Z::Areni-1 Cave (Արենիի քարանձավ) || 2021-09-06T11:25:15Z::Nazaryans' Guesthouse","areni","PASS_THROUGH_SINGLETON","","Areni","0","OVERLAP","ACCURATE","Keep 'Areni' as canonical city via PASS_THROUGH_SINGLETON; timeline=OVERLAP."
"(BLANK_CITY) [Armenia] -> Byurakan","Armenia","1","0","40.491519","44.181348","2021-09-10T08:31:10Z","2021-09-10T08:31:10Z","1","Aragats Mountain | Արագած լեռ","2021-09-10T08:31:10Z::Aragats Mountain | Արագած լեռ","blank city armenia byurakan","BLANK_CITY_INFERRED","Byurakan","Byurakan","1.948","NO_OVERLAP","ACCURATE","Inferred blank city rows -> 'Byurakan' using country + coordinates + timeline; distance=1.948 km; timeline=NO_OVERLAP."
"Byurakan","Armenia","1","1","40.474","44.1814","2021-09-10T08:37:31Z","2021-09-10T08:37:31Z","1","Lake Kari (Քարի լիճ)","2021-09-10T08:37:31Z::Lake Kari (Քարի լիճ)","byurakan","PASS_THROUGH_SINGLETON","","Byurakan","0","OVERLAP","ACCURATE","Keep 'Byurakan' as canonical city via PASS_THROUGH_SINGLETON; timeline=OVERLAP."
"(BLANK_CITY) [Armenia] -> Dilijan","Armenia","2","0","40.741659","44.906835","2021-09-09T13:16:02Z","2021-09-09T13:25:21Z","2","Dilijan | Դիլիջան | Dilijan National Park | Դիլիջան ազգային պարկ","2021-09-09T13:16:02Z::Dilijan | Դիլիջան || 2021-09-09T13:25:21Z::Dilijan National Park | Դիլիջան ազգային պարկ","blank city armenia dilijan","BLANK_CITY_INFERRED","Dilijan","Dilijan","3.494","OVERLAP","ACCURATE","Inferred blank city rows -> 'Dilijan' using country + coordinates + timeline; distance=3.494 km; timeline=OVERLAP."
"Dilijan","Armenia","1","1","40.7403","44.8654","2021-09-09T13:19:14Z","2021-09-09T13:19:14Z","1","Памятник Мимино","2021-09-09T13:19:14Z::Памятник Мимино","dilijan","PASS_THROUGH_SINGLETON","","Dilijan","0","OVERLAP","ACCURATE","Keep 'Dilijan' as canonical city via PASS_THROUGH_SINGLETON; timeline=OVERLAP."
"Garni","Armenia","2","2","40.1187","44.7295","2021-09-09T06:03:33Z","2021-09-09T06:31:20Z","2","Գառնի | Garni | Баня III века н. э.","2021-09-09T06:03:33Z::Գառնի | Garni || 2021-09-09T06:31:20Z::Баня III века н. э.","garni","EXPLICIT_MAP","Garni","Garni","0","OVERLAP","ACCURATE","Merge 'Garni' -> 'Garni' via EXPLICIT_MAP; distance=0 km; timeline=OVERLAP."
"Garrni","Armenia","2","2","40.1137","44.7359","2021-09-09T06:12:43Z","2021-09-09T06:54:55Z","2","Garni Temple (Գառնու տաճար) | Stone Symphony | Քարերի սիմֆոնիա","2021-09-09T06:12:43Z::Garni Temple (Գառնու տաճար) || 2021-09-09T06:54:55Z::Stone Symphony | Քարերի սիմֆոնիա","garrni","EXPLICIT_MAP","Garni","Garni","0.778","OVERLAP","ACCURATE","Merge 'Garrni' -> 'Garni' via EXPLICIT_MAP; distance=0.778 km; timeline=OVERLAP."
"(BLANK_CITY) [Armenia] -> Geghard","Armenia","1","0","40.139637","44.818623","2021-09-09T07:01:12Z","2021-09-09T07:01:12Z","1","Azat","2021-09-09T07:01:12Z::Azat","blank city armenia geghard","BLANK_CITY_INFERRED","Geghard","Geghard","0.088","NO_OVERLAP","ACCURATE","Inferred blank city rows -> 'Geghard' using country + coordinates + timeline; distance=0.088 km; timeline=NO_OVERLAP."
"Geghard","Armenia","1","1","40.1402","44.8179","2021-09-09T07:43:27Z","2021-09-09T07:43:27Z","1","Geghard Monastery (Գեղարդի տաճար)","2021-09-09T07:43:27Z::Geghard Monastery (Գեղարդի տաճար)","geghard","PASS_THROUGH_SINGLETON","","Geghard","0","OVERLAP","ACCURATE","Keep 'Geghard' as canonical city via PASS_THROUGH_SINGLETON; timeline=OVERLAP."
"Gjoemri","Armenia","1","1","40.7887","43.8416","2021-09-15T11:13:57Z","2021-09-15T11:13:57Z","1","Սուրբ Նշան եկեղեցի","2021-09-15T11:13:57Z::Սուրբ Նշան եկեղեցի","gjoemri","PASS_THROUGH_SINGLETON","","Gjoemri","0","OVERLAP","ACCURATE","Keep 'Gjoemri' as canonical city via PASS_THROUGH_SINGLETON; timeline=OVERLAP."
"(BLANK_CITY) [Armenia] -> Goris","Armenia","3","0","39.508606","46.340476","2021-09-06T16:33:57Z","2021-09-06T18:03:03Z","3","Գորիս | Goris | Vivas Hotel Goris | Syuniq Street","2021-09-06T16:33:57Z::Գորիս | Goris || 2021-09-06T16:45:48Z::Vivas Hotel Goris || 2021-09-06T18:03:03Z::Syuniq Street","blank city armenia goris","BLANK_CITY_INFERRED","Goris","Goris","1.405","OVERLAP","ACCURATE","Inferred blank city rows -> 'Goris' using country + coordinates + timeline; distance=1.405 km; timeline=OVERLAP."
"Goris","Armenia","6","6","39.5076","46.3568","2021-09-06T16:31:04Z","2021-09-07T05:54:53Z","6","Գորիս Զանգեր | Goris Zanger | Wine Garden | Park of Vienne (Վիեննայի այգի) | Victory Park | Bells Of Goris | Խնձորեսկ | Khndzoresk","2021-09-06T16:31:04Z::Գորիս Զանգեր | Goris Zanger || 2021-09-06T17:53:21Z::Wine Garden || 2021-09-06T18:15:07Z::Park of Vienne (Վիեննայի այգի) || 2021-09-06T18:43:17Z::Victory Park || 2021-09-07T05:24:10Z::Bells Of Goris || 2021-09-07T05:54:53Z::Խնձորեսկ | Khndzoresk","goris","PASS_THROUGH_SINGLETON","","Goris","0","OVERLAP","ACCURATE","Keep 'Goris' as canonical city via PASS_THROUGH_SINGLETON; timeline=OVERLAP."
"(BLANK_CITY) [Armenia] -> Gyumri","Armenia","17","0","40.786218","43.844128","2021-09-13T07:09:17Z","2021-09-18T02:44:54Z","0","","","blank city armenia gyumri","BLANK_CITY_INFERRED","Gyumri","Gyumri","0.211","OVERLAP","ACCURATE","Inferred blank city rows -> 'Gyumri' using country + coordinates + timeline; distance=0.211 km; timeline=OVERLAP."
"Gyumri","Armenia","86","86","40.7879","43.8453","2021-09-13T07:05:41Z","2021-09-18T03:47:15Z","0","","","gyumri","PASS_THROUGH_SINGLETON","","Gyumri","0","OVERLAP","ACCURATE","Keep 'Gyumri' as canonical city via PASS_THROUGH_SINGLETON; timeline=OVERLAP."
"(BLANK_CITY) [Armenia] -> Haghartsin","Armenia","2","0","40.792911","44.957311","2021-09-09T13:39:54Z","2021-09-09T14:12:51Z","2","Պարզ Լիճ | Parz Lich | Mountains of Dilijan","2021-09-09T13:39:54Z::Պարզ Լիճ | Parz Lich || 2021-09-09T14:12:51Z::Mountains of Dilijan","blank city armenia haghartsin","BLANK_CITY_INFERRED","Haghartsin","Haghartsin","5.687","NO_OVERLAP","NEEDS_HUMAN_ATTENTION","Inferred blank city rows -> 'Haghartsin' using country + coordinates + timeline; distance=5.687 km; timeline=NO_OVERLAP."
"Haghartsin","Armenia","1","1","40.8019","44.8908","2021-09-09T14:29:20Z","2021-09-09T14:29:20Z","1","Haghartsin Monastery | Հաղարծնի վանք","2021-09-09T14:29:20Z::Haghartsin Monastery | Հաղարծնի վանք","haghartsin","PASS_THROUGH_SINGLETON","","Haghartsin","0","OVERLAP","ACCURATE","Keep 'Haghartsin' as canonical city via PASS_THROUGH_SINGLETON; timeline=OVERLAP."
"Halidzor","Armenia","2","2","39.4026","46.2883","2021-09-07T08:09:37Z","2021-09-07T10:06:11Z","2","Wings of Tatev aerial tramway / ՏաԹևեր Ճոպանուղի | Harsnadzor Watchtower","2021-09-07T08:09:37Z::Wings of Tatev aerial tramway / ՏաԹևեր Ճոպանուղի || 2021-09-07T10:06:11Z::Harsnadzor Watchtower","halidzor","PASS_THROUGH_SINGLETON","","Halidzor","0","OVERLAP","ACCURATE","Keep 'Halidzor' as canonical city via PASS_THROUGH_SINGLETON; timeline=OVERLAP."
"Hovhannavank","Armenia","1","1","40.3399","44.3883","2021-09-10T06:04:09Z","2021-09-10T06:04:09Z","1","Hovhannavank | Հովհաննավանք","2021-09-10T06:04:09Z::Hovhannavank | Հովհաննավանք","hovhannavank","PASS_THROUGH_SINGLETON","","Hovhannavank","0","OVERLAP","ACCURATE","Keep 'Hovhannavank' as canonical city via PASS_THROUGH_SINGLETON; timeline=OVERLAP."
"(BLANK_CITY) [Armenia] -> Jermuk","Armenia","5","0","39.746519","45.698208","2021-09-06T13:32:09Z","2021-09-07T15:00:21Z","5","Jermuk Bridge | Arpa (Արփա) | Vorotan Pass | Սիսիան Զանգեր | Sisian Zanger","2021-09-06T13:32:09Z::Jermuk Bridge || 2021-09-06T13:33:05Z::Arpa (Արփա) || 2021-09-06T15:19:16Z::Vorotan Pass || 2021-09-06T15:26:20Z::Սիսիան Զանգեր | Sisian Zanger || 2021-09-07T15:00:21Z::Vorotan Pass","blank city armenia jermuk","BLANK_CITY_INFERRED","Jermuk","Jermuk","10.564","OVERLAP","NEEDS_HUMAN_ATTENTION","Inferred blank city rows -> 'Jermuk' using country + coordinates + timeline; distance=10.564 km; timeline=OVERLAP."
"Jermuk","Armenia","6","6","39.8388","45.6688","2021-09-06T13:03:35Z","2021-09-06T14:25:59Z","6","Jermuk | Ջերմուկ | Jermuk Waterfalls | Ջերմուկ ջրվեժ | Israyel Ori | Jermuk Footpath & Park | Gallery of Mineral Waters | Yotnaghbyur Lake","2021-09-06T13:03:35Z::Jermuk | Ջերմուկ || 2021-09-06T13:13:24Z::Jermuk Waterfalls | Ջերմուկ ջրվեժ || 2021-09-06T13:54:13Z::Israyel Ori || 2021-09-06T13:58:44Z::Jermuk Footpath & Park || 2021-09-06T14:01:39Z::Gallery of Mineral Waters || 2021-09-06T14:25:59Z::Yotnaghbyur Lake","jermuk","PASS_THROUGH_SINGLETON","","Jermuk","0","OVERLAP","ACCURATE","Keep 'Jermuk' as canonical city via PASS_THROUGH_SINGLETON; timeline=OVERLAP."
"Kech’ut","Armenia","1","1","39.7971","45.6558","2021-09-06T12:58:08Z","2021-09-06T12:58:08Z","1","Kechut Reservoir | Կեչուտի ջրամբար","2021-09-06T12:58:08Z::Kechut Reservoir | Կեչուտի ջրամբար","kech ut","PASS_THROUGH_SINGLETON","","Kech’ut","0","OVERLAP","ACCURATE","Keep 'Kech’ut' as canonical city via PASS_THROUGH_SINGLETON; timeline=OVERLAP."
"(BLANK_CITY) [Armenia] -> Kndzoresk","Armenia","1","0","39.500175","46.430962","2021-09-07T05:58:01Z","2021-09-07T05:58:01Z","1","Смотровая площадка","2021-09-07T05:58:01Z::Смотровая площадка","blank city armenia kndzoresk","BLANK_CITY_INFERRED","Kndzoresk","Kndzoresk","0.215","NO_OVERLAP","ACCURATE","Inferred blank city rows -> 'Kndzoresk' using country + coordinates + timeline; distance=0.215 km; timeline=NO_OVERLAP."
"Kndzoresk","Armenia","2","2","39.5014","46.4329","2021-09-07T06:07:27Z","2021-09-07T06:28:56Z","2","Khndzoresk Bridge | Old Khndzoresk Church","2021-09-07T06:07:27Z::Khndzoresk Bridge || 2021-09-07T06:28:56Z::Old Khndzoresk Church","kndzoresk","PASS_THROUGH_SINGLETON","","Kndzoresk","0","OVERLAP","ACCURATE","Keep 'Kndzoresk' as canonical city via PASS_THROUGH_SINGLETON; timeline=OVERLAP."
"Lusarat","Armenia","1","1","39.8783","44.5761","2021-09-06T04:11:48Z","2021-09-06T04:11:48Z","1","Khor Virap (Խոր Վիրապ)","2021-09-06T04:11:48Z::Khor Virap (Խոր Վիրապ)","lusarat","PASS_THROUGH_SINGLETON","","Lusarat","0","OVERLAP","ACCURATE","Keep 'Lusarat' as canonical city via PASS_THROUGH_SINGLETON; timeline=OVERLAP."
"(BLANK_CITY) [Armenia] -> Marmashen","Armenia","1","0","40.844246","43.754684","2021-09-15T07:25:19Z","2021-09-15T07:25:19Z","1","Akhuryan River","2021-09-15T07:25:19Z::Akhuryan River","blank city armenia marmashen","BLANK_CITY_INFERRED","Marmashen","Marmashen","1.211","OVERLAP","ACCURATE","Inferred blank city rows -> 'Marmashen' using country + coordinates + timeline; distance=1.211 km; timeline=OVERLAP."
"Marmashen","Armenia","2","2","40.8425","43.7689","2021-09-15T07:18:45Z","2021-09-15T07:55:27Z","2","Marmashen Monastery | Մարմաշենի վանք (Մարմաշենի վանք) | Marmashen Highway","2021-09-15T07:18:45Z::Marmashen Monastery | Մարմաշենի վանք (Մարմաշենի վանք) || 2021-09-15T07:55:27Z::Marmashen Highway","marmashen","PASS_THROUGH_SINGLETON","","Marmashen","0","OVERLAP","ACCURATE","Keep 'Marmashen' as canonical city via PASS_THROUGH_SINGLETON; timeline=OVERLAP."
"Noravank","Armenia","2","2","39.6846","45.2326","2021-09-06T08:02:04Z","2021-09-06T08:06:36Z","2","Noravank | Նորավանք (Նորավանք) | Surb Karapet Church","2021-09-06T08:02:04Z::Noravank | Նորավանք (Նորավանք) || 2021-09-06T08:06:36Z::Surb Karapet Church","noravank","PASS_THROUGH_SINGLETON","","Noravank","0","OVERLAP","ACCURATE","Keep 'Noravank' as canonical city via PASS_THROUGH_SINGLETON; timeline=OVERLAP."
"Ohanavan","Armenia","1","1","40.3411","44.3809","2021-09-10T06:01:26Z","2021-09-10T06:01:26Z","1","Ohanavan | Օհանավան","2021-09-10T06:01:26Z::Ohanavan | Օհանավան","ohanavan","PASS_THROUGH_SINGLETON","","Ohanavan","0","OVERLAP","ACCURATE","Keep 'Ohanavan' as canonical city via PASS_THROUGH_SINGLETON; timeline=OVERLAP."
"(BLANK_CITY) [Armenia] -> P’arak’ar","Armenia","1","0","40.151743","44.400095","2021-09-18T22:29:33Z","2021-09-18T22:29:33Z","1","Security Check","2021-09-18T22:29:33Z::Security Check","blank city armenia p arak ar","BLANK_CITY_INFERRED","P’arak’ar","P’arak’ar","0.041","OVERLAP","ACCURATE","Inferred blank city rows -> 'P’arak’ar' using country + coordinates + timeline; distance=0.041 km; timeline=OVERLAP."
"P’arak’ar","Armenia","4","4","40.1521","44.4","2021-09-04T00:37:55Z","2021-09-18T22:57:53Z","4","Arrivals Hall | Ժամանման Սրահ | Check-in counter (Check-in counter | Գրանցումներ) | Duty Free | Gate 2","2021-09-04T00:37:55Z::Arrivals Hall | Ժամանման Սրահ || 2021-09-18T21:34:13Z::Check-in counter (Check-in counter | Գրանցումներ) || 2021-09-18T22:30:30Z::Duty Free || 2021-09-18T22:57:53Z::Gate 2","p arak ar","PASS_THROUGH_SINGLETON","","P’arak’ar","0","OVERLAP","ACCURATE","Keep 'P’arak’ar' as canonical city via PASS_THROUGH_SINGLETON; timeline=OVERLAP."
"(BLANK_CITY) [Armenia] -> Saghmosavan","Armenia","3","0","40.401023","44.385567","2021-09-10T06:29:34Z","2021-09-10T07:25:34Z","3","Saghmonsavan | St. Cross | Armenian alphabet monument ""stone letters"" | Քար-տառերի պուրակ","2021-09-10T06:29:34Z::Saghmonsavan || 2021-09-10T07:15:45Z::St. Cross || 2021-09-10T07:25:34Z::Armenian alphabet monument ""stone letters"" | Քար-տառերի պուրակ","blank city armenia saghmosavan","BLANK_CITY_INFERRED","Saghmosavan","Saghmosavan","2.465","OVERLAP","ACCURATE","Inferred blank city rows -> 'Saghmosavan' using country + coordinates + timeline; distance=2.465 km; timeline=OVERLAP."
"Saghmosavan","Armenia","2","2","40.3806","44.3969","2021-09-10T06:33:37Z","2021-09-10T06:47:34Z","2","Saghmosavanq | Սաղմոսավանք | Аштаракское ущелье","2021-09-10T06:33:37Z::Saghmosavanq | Սաղմոսավանք || 2021-09-10T06:47:34Z::Аштаракское ущелье","saghmosavan","PASS_THROUGH_SINGLETON","","Saghmosavan","0","OVERLAP","ACCURATE","Keep 'Saghmosavan' as canonical city via PASS_THROUGH_SINGLETON; timeline=OVERLAP."
"(BLANK_CITY) [Armenia] -> Sarnakunk","Armenia","1","0","39.605644","45.916786","2021-09-06T15:35:51Z","2021-09-06T15:35:51Z","1","Spandaryan Reservoir","2021-09-06T15:35:51Z::Spandaryan Reservoir","blank city armenia sarnakunk","BLANK_CITY_INFERRED","Sarnakunk","Sarnakunk","5.481","NO_OVERLAP","NEEDS_HUMAN_ATTENTION","Inferred blank city rows -> 'Sarnakunk' using country + coordinates + timeline; distance=5.481 km; timeline=NO_OVERLAP."
"Sarnakunk","Armenia","2","2","39.6489","45.8861","2021-09-06T15:43:34Z","2021-09-07T14:36:14Z","2","Gas Station","2021-09-06T15:43:34Z::Gas Station || 2021-09-07T14:36:14Z::Gas Station","sarnakunk","PASS_THROUGH_SINGLETON","","Sarnakunk","0","OVERLAP","ACCURATE","Keep 'Sarnakunk' as canonical city via PASS_THROUGH_SINGLETON; timeline=OVERLAP."
"(BLANK_CITY) [Armenia] -> Semyonovka","Armenia","1","0","40.688886","44.863964","2021-09-09T13:03:09Z","2021-09-09T13:03:09Z","1","dilijani povorotner","2021-09-09T13:03:09Z::dilijani povorotner","blank city armenia semyonovka","BLANK_CITY_INFERRED","Semyonovka","Semyonovka","3.458","NO_OVERLAP","ACCURATE","Inferred blank city rows -> 'Semyonovka' using country + coordinates + timeline; distance=3.458 km; timeline=NO_OVERLAP."
"Semyonovka","Armenia","1","1","40.6638","44.8882","2021-09-09T12:55:46Z","2021-09-09T12:55:46Z","1","Dilijan Tunnel","2021-09-09T12:55:46Z::Dilijan Tunnel","semyonovka","PASS_THROUGH_SINGLETON","","Semyonovka","0","OVERLAP","ACCURATE","Keep 'Semyonovka' as canonical city via PASS_THROUGH_SINGLETON; timeline=OVERLAP."
"Sevan","Armenia","5","5","40.5653","45.0059","2021-09-09T09:50:44Z","2021-09-09T11:32:17Z","5","Peninsula of Sevan (Սևանի թերակղզի) | Սևանավանք | Sevanavank Monastery (Սևանավանք) | Arevik beach | Lake Sevan (Սևանա լիճ) | Hakopi Mot","2021-09-09T09:50:44Z::Peninsula of Sevan (Սևանի թերակղզի) || 2021-09-09T09:59:23Z::Սևանավանք | Sevanavank Monastery (Սևանավանք) || 2021-09-09T10:43:13Z::Arevik beach || 2021-09-09T10:46:30Z::Lake Sevan (Սևանա լիճ) || 2021-09-09T11:32:17Z::Hakopi Mot","sevan","PASS_THROUGH_SINGLETON","","Sevan","0","OVERLAP","ACCURATE","Keep 'Sevan' as canonical city via PASS_THROUGH_SINGLETON; timeline=OVERLAP."
"Shak’i","Armenia","1","1","39.5518","45.9937","2021-09-07T12:35:04Z","2021-09-07T12:35:04Z","1","Շաքիի ջրվեժ | Shaki Waterfall","2021-09-07T12:35:04Z::Շաքիի ջրվեժ | Shaki Waterfall","shak i","PASS_THROUGH_SINGLETON","","Shak’i","0","OVERLAP","ACCURATE","Keep 'Shak’i' as canonical city via PASS_THROUGH_SINGLETON; timeline=OVERLAP."
"Sisian","Armenia","1","1","39.5773","45.9991","2021-09-07T13:09:53Z","2021-09-07T13:09:53Z","1","Tatni","2021-09-07T13:09:53Z::Tatni","sisian","PASS_THROUGH_SINGLETON","","Sisian","0","OVERLAP","ACCURATE","Keep 'Sisian' as canonical city via PASS_THROUGH_SINGLETON; timeline=OVERLAP."
"(BLANK_CITY) [Armenia] -> Tatev","Armenia","1","0","39.394538","46.254494","2021-09-07T10:29:21Z","2021-09-07T10:29:21Z","1","Vorotan River Canyon | Воротанское ущелье","2021-09-07T10:29:21Z::Vorotan River Canyon | Воротанское ущелье","blank city armenia tatev","BLANK_CITY_INFERRED","Tatev","Tatev","0.783","OVERLAP","ACCURATE","Inferred blank city rows -> 'Tatev' using country + coordinates + timeline; distance=0.783 km; timeline=OVERLAP."
"Tatev","Armenia","2","2","39.3875","46.2541","2021-09-07T08:43:00Z","2021-09-07T11:59:13Z","2","Tatev Monastery (Տաթևի վանք) | Devil's Bridge | Սատանի կամուրջ","2021-09-07T08:43:00Z::Tatev Monastery (Տաթևի վանք) || 2021-09-07T11:59:13Z::Devil's Bridge | Սատանի կամուրջ","tatev","PASS_THROUGH_SINGLETON","","Tatev","0","OVERLAP","ACCURATE","Keep 'Tatev' as canonical city via PASS_THROUGH_SINGLETON; timeline=OVERLAP."
"(BLANK_CITY) [Armenia] -> Vagharshapat","Armenia","2","0","40.165198","44.301876","2021-09-11T05:46:40Z","2021-09-11T06:11:15Z","2","Buenos Aires Park | Բուենոս Այրեսի այգի | Vagharshapat (Էջմիածին)","2021-09-11T05:46:40Z::Buenos Aires Park | Բուենոս Այրեսի այգի || 2021-09-11T06:11:15Z::Vagharshapat (Էջմիածին)","blank city armenia vagharshapat","BLANK_CITY_INFERRED","Vagharshapat","Vagharshapat","0.432","OVERLAP","ACCURATE","Inferred blank city rows -> 'Vagharshapat' using country + coordinates + timeline; distance=0.432 km; timeline=OVERLAP."
"Vagharshapat","Armenia","5","5","40.1631","44.2976","2021-09-11T05:50:58Z","2021-09-11T07:04:01Z","5","St. Ripsime Holy Church | Սուրբ Հռիփսիմե եկեղեցի | Shoghakat Holy Church | Շողակաթ եկեղեցի | St. Gayane Holy Church | Սուրբ Գայանե եկեղեցի | Mother See of Holy Etchmiadzin | Մայր Աթոռ Սուրբ Էջմիածին | Holy Etchmiadzin Cathedral | Էջմիածնի Մայր Տաճար","2021-09-11T05:50:58Z::St. Ripsime Holy Church | Սուրբ Հռիփսիմե եկեղեցի || 2021-09-11T06:12:35Z::Shoghakat Holy Church | Շողակաթ եկեղեցի || 2021-09-11T06:37:37Z::St. Gayane Holy Church | Սուրբ Գայանե եկեղեցի || 2021-09-11T06:57:17Z::Mother See of Holy Etchmiadzin | Մայր Աթոռ Սուրբ Էջմիածին || 2021-09-11T07:04:01Z::Holy Etchmiadzin Cathedral | Էջմիածնի Մայր Տաճար","vagharshapat","PASS_THROUGH_SINGLETON","","Vagharshapat","0","OVERLAP","ACCURATE","Keep 'Vagharshapat' as canonical city via PASS_THROUGH_SINGLETON; timeline=OVERLAP."
"Vahramaberd","Armenia","1","1","40.855","43.7587","2021-09-15T08:00:36Z","2021-09-15T08:00:36Z","1","Methan Cng Station Vahramaberd","2021-09-15T08:00:36Z::Methan Cng Station Vahramaberd","vahramaberd","PASS_THROUGH_SINGLETON","","Vahramaberd","0","OVERLAP","ACCURATE","Keep 'Vahramaberd' as canonical city via PASS_THROUGH_SINGLETON; timeline=OVERLAP."
"Voghjaberd","Armenia","1","1","40.1736","44.6366","2021-09-09T05:46:24Z","2021-09-09T05:46:24Z","1","Charents's Arc","2021-09-09T05:46:24Z::Charents's Arc","voghjaberd","PASS_THROUGH_SINGLETON","","Voghjaberd","0","OVERLAP","ACCURATE","Keep 'Voghjaberd' as canonical city via PASS_THROUGH_SINGLETON; timeline=OVERLAP."
"Yeraskh","Armenia","1","1","39.7415","44.83","2021-09-06T05:55:03Z","2021-09-06T05:55:03Z","1","Bistro 11","2021-09-06T05:55:03Z::Bistro 11","yeraskh","PASS_THROUGH_SINGLETON","","Yeraskh","0","OVERLAP","ACCURATE","Keep 'Yeraskh' as canonical city via PASS_THROUGH_SINGLETON; timeline=OVERLAP."
"(BLANK_CITY) [Armenia] -> Yerevan","Armenia","39","0","40.17327","44.502507","2021-09-04T01:05:39Z","2021-09-18T23:04:37Z","0","","","blank city armenia yerevan","BLANK_CITY_INFERRED","Yerevan","Yerevan","0.617","OVERLAP","ACCURATE","Inferred blank city rows -> 'Yerevan' using country + coordinates + timeline; distance=0.617 km; timeline=OVERLAP."
"Yerevan","Armenia","241","241","40.1769","44.508","2021-09-03T23:36:06Z","2021-09-18T23:12:41Z","0","","","yerevan","PASS_THROUGH_SINGLETON","","Yerevan","0","OVERLAP","ACCURATE","Keep 'Yerevan' as canonical city via PASS_THROUGH_SINGLETON; timeline=OVERLAP."
"Yerevan, Sakharov Square","Armenia","1","1","40.1796","44.5171","2021-09-04T08:13:47Z","2021-09-04T08:13:47Z","1","Andrey Sakharov statue | Սախարովի արձան","2021-09-04T08:13:47Z::Andrey Sakharov statue | Սախարովի արձան","yerevan sakharov square","EXPLICIT_MAP","Yerevan","Yerevan","0.829","OVERLAP","ACCURATE","Merge 'Yerevan, Sakharov Square' -> 'Yerevan' via EXPLICIT_MAP; distance=0.829 km; timeline=OVERLAP."
"Zvartnots","Armenia","1","1","40.1604","44.3366","2021-09-11T07:31:16Z","2021-09-11T07:31:16Z","1","Zvartnots Cathedral | Զվարթնոցի տաճար","2021-09-11T07:31:16Z::Zvartnots Cathedral | Զվարթնոցի տաճար","zvartnots","PASS_THROUGH_SINGLETON","","Zvartnots","0","OVERLAP","ACCURATE","Keep 'Zvartnots' as canonical city via PASS_THROUGH_SINGLETON; timeline=OVERLAP."
"Гарни","Armenia","1","1","40.1159","44.7301","2021-09-09T06:52:44Z","2021-09-09T06:52:44Z","1","Garni canyon","2021-09-09T06:52:44Z::Garni canyon","гарни","PASS_THROUGH_SINGLETON","","Гарни","0","OVERLAP","ACCURATE","Keep 'Гарни' as canonical city via PASS_THROUGH_SINGLETON; timeline=OVERLAP."
"Нораванк","Armenia","1","1","39.7122","45.2074","2021-09-06T07:51:30Z","2021-09-06T07:51:30Z","1","Noravank Monastery Road","2021-09-06T07:51:30Z::Noravank Monastery Road","нораванк","PASS_THROUGH_SINGLETON","","Нораванк","0","OVERLAP","ACCURATE","Keep 'Нораванк' as canonical city via PASS_THROUGH_SINGLETON; timeline=OVERLAP."
"(BLANK_CITY) [Austria] -> Bregenz","Austria","1","0","47.503197","9.745377","2025-06-23T14:38:36Z","2025-06-23T14:38:36Z","1","Kommod","2025-06-23T14:38:36Z::Kommod","blank city austria bregenz","BLANK_CITY_INFERRED","Bregenz","Bregenz","0.189","OVERLAP","ACCURATE","Inferred blank city rows -> 'Bregenz' using country + coordinates + timeline; distance=0.189 km; timeline=OVERLAP."
"Bregenz","Austria","15","15","47.5044","9.7436","2025-06-23T14:25:45Z","2025-06-23T16:16:45Z","0","","","bregenz","PASS_THROUGH_SINGLETON","","Bregenz","0","OVERLAP","ACCURATE","Keep 'Bregenz' as canonical city via PASS_THROUGH_SINGLETON; timeline=OVERLAP."
"(BLANK_CITY) [Austria] -> Feldkirch","Austria","5","0","47.238276","9.599043","2025-06-23T09:50:51Z","2025-06-23T13:45:45Z","5","Bus 11 (Bendern - Schaan - Vaduz) | Ill Feldkirch | Elisabethplatz | Johanniter Kirche Feldkirch | S1 • Lindau – Bregenz – Bludenz","2025-06-23T09:50:51Z::Bus 11 (Bendern - Schaan - Vaduz) || 2025-06-23T13:01:14Z::Ill Feldkirch || 2025-06-23T13:04:04Z::Elisabethplatz || 2025-06-23T13:09:18Z::Johanniter Kirche Feldkirch || 2025-06-23T13:45:45Z::S1 • Lindau – Bregenz – Bludenz","blank city austria feldkirch","BLANK_CITY_INFERRED","Feldkirch","Feldkirch","0.167","OVERLAP","ACCURATE","Inferred blank city rows -> 'Feldkirch' using country + coordinates + timeline; distance=0.167 km; timeline=OVERLAP."
"Feldkirch","Austria","9","9","47.2372","9.5975","2025-06-23T12:56:05Z","2025-06-23T13:41:57Z","9","Feldkirch | Reichenfeldbrücke | Marktgasse | Der Ruhende (Isidörle) | Leonhardsplatz | Montfortbrunnen | Domplatz | Dom St Nikolaus | Bahnhof Feldkirch","2025-06-23T12:56:05Z::Feldkirch || 2025-06-23T13:01:07Z::Reichenfeldbrücke || 2025-06-23T13:07:33Z::Marktgasse || 2025-06-23T13:11:32Z::Der Ruhende (Isidörle) || 2025-06-23T13:14:34Z::Leonhardsplatz || 2025-06-23T13:21:10Z::Montfortbrunnen || 2025-06-23T13:25:01Z::Domplatz || 2025-06-23T13:26:58Z::Dom St Nikolaus || 2025-06-23T13:41:57Z::Bahnhof Feldkirch","feldkirch","PASS_THROUGH_SINGLETON","","Feldkirch","0","OVERLAP","ACCURATE","Keep 'Feldkirch' as canonical city via PASS_THROUGH_SINGLETON; timeline=OVERLAP."
"Innere Stadt","Austria","1","1","46.626","14.3073","2025-08-09T14:53:10Z","2025-08-09T14:53:10Z","1","Pfarrplatz","2025-08-09T14:53:10Z::Pfarrplatz","innere stadt","PASS_THROUGH_SINGLETON","","Innere Stadt","0","OVERLAP","ACCURATE","Keep 'Innere Stadt' as canonical city via PASS_THROUGH_SINGLETON; timeline=OVERLAP."
"(BLANK_CITY) [Austria] -> Klagenfurt","Austria","5","0","46.624333","14.308219","2025-08-09T13:23:08Z","2025-08-09T15:24:57Z","5","Klagenfurt am Wörthersee | Bahnhofstrasse | Theaterplatz | Wienergasse | Kramergasse","2025-08-09T13:23:08Z::Klagenfurt am Wörthersee || 2025-08-09T13:29:57Z::Bahnhofstrasse || 2025-08-09T14:40:17Z::Theaterplatz || 2025-08-09T14:53:46Z::Wienergasse || 2025-08-09T15:24:57Z::Kramergasse","blank city austria klagenfurt","BLANK_CITY_INFERRED","Klagenfurt","Klagenfurt","0.054","OVERLAP","ACCURATE","Inferred blank city rows -> 'Klagenfurt' using country + coordinates + timeline; distance=0.054 km; timeline=OVERLAP."
"Klagenfurt","Austria","14","14","46.6239","14.3079","2025-08-09T13:17:36Z","2025-08-09T15:36:03Z","0","","","klagenfurt","PASS_THROUGH_SINGLETON","","Klagenfurt","0","OVERLAP","ACCURATE","Keep 'Klagenfurt' as canonical city via PASS_THROUGH_SINGLETON; timeline=OVERLAP."
"Lochau","Austria","1","1","47.5258","9.7448","2025-06-23T15:24:11Z","2025-06-23T15:24:11Z","1","Bodensee","2025-06-23T15:24:11Z::Bodensee","lochau","PASS_THROUGH_SINGLETON","","Lochau","0","OVERLAP","ACCURATE","Keep 'Lochau' as canonical city via PASS_THROUGH_SINGLETON; timeline=OVERLAP."
"Schaanwald","Austria","1","1","47.2182","9.5704","2025-06-23T12:49:02Z","2025-06-23T12:49:02Z","1","Grenzübergang Feldkirch (AT) / Schaanwald (FL)","2025-06-23T12:49:02Z::Grenzübergang Feldkirch (AT) / Schaanwald (FL)","schaanwald","PASS_THROUGH_SINGLETON","","Schaanwald","0","OVERLAP","ACCURATE","Keep 'Schaanwald' as canonical city via PASS_THROUGH_SINGLETON; timeline=OVERLAP."
"Schwechat","Austria","1","1","48.1198","16.5638","2019-09-13T20:09:15Z","2019-09-13T20:09:15Z","1","Vienna Airport Coach Station (Flughafen Wien Busterminal)","2019-09-13T20:09:15Z::Vienna Airport Coach Station (Flughafen Wien Busterminal)","schwechat","PASS_THROUGH_SINGLETON","","Schwechat","0","OVERLAP","ACCURATE","Keep 'Schwechat' as canonical city via PASS_THROUGH_SINGLETON; timeline=OVERLAP."
"(BLANK_CITY) [Austria] -> Vienna","Austria","7","0","48.203153","16.354874","2019-09-12T06:46:40Z","2025-08-09T09:12:20Z","7","Republic of Austria (Republik Österreich) | Vienna (Wien) | Sonnenuhr | Zieglergasse | Eis-ess-Platz","2019-09-12T06:46:40Z::Republic of Austria (Republik Österreich) || 2019-09-12T07:19:40Z::Vienna (Wien) || 2019-09-12T11:19:08Z::Sonnenuhr || 2019-09-12T13:18:32Z::Zieglergasse || 2019-09-13T15:54:59Z::Eis-ess-Platz || 2025-06-23T12:55:25Z::Republic of Austria (Republik Österreich) || 2025-08-09T09:12:20Z::Republic of Austria (Republik Österreich)","blank city austria vienna","BLANK_CITY_INFERRED","Vienna","Vienna","1.224","OVERLAP","ACCURATE","Inferred blank city rows -> 'Vienna' using country + coordinates + timeline; distance=1.224 km; timeline=OVERLAP."
"Vienna","Austria","133","133","48.2069","16.3704","2019-09-12T07:34:16Z","2019-09-13T19:19:10Z","0","","","vienna","PASS_THROUGH_SINGLETON","","Vienna","0","OVERLAP","ACCURATE","Keep 'Vienna' as canonical city via PASS_THROUGH_SINGLETON; timeline=OVERLAP."
"(BLANK_CITY) [Austria] -> Villach","Austria","6","0","46.61273","13.847114","2025-08-09T09:41:33Z","2025-08-09T12:51:56Z","6","Nikolaiplatz | Adlerstatue | Stadtpark | Evangelische Kirche | Villach Innere Stadt | Villach","2025-08-09T09:41:33Z::Nikolaiplatz || 2025-08-09T09:56:49Z::Adlerstatue || 2025-08-09T11:20:33Z::Stadtpark || 2025-08-09T11:35:38Z::Evangelische Kirche || 2025-08-09T12:23:44Z::Villach Innere Stadt || 2025-08-09T12:51:56Z::Villach","blank city austria villach","BLANK_CITY_INFERRED","Villach","Villach","0.209","OVERLAP","ACCURATE","Inferred blank city rows -> 'Villach' using country + coordinates + timeline; distance=0.209 km; timeline=OVERLAP."
"Villach","Austria","15","15","46.6146","13.8469","2025-08-09T09:23:04Z","2025-08-09T12:28:41Z","0","","","villach","PASS_THROUGH_SINGLETON","","Villach","0","OVERLAP","ACCURATE","Keep 'Villach' as canonical city via PASS_THROUGH_SINGLETON; timeline=OVERLAP."
"(BLANK_CITY) [Azerbaijan] -> Baku","Azerbaijan","14","0","40.391002","49.501504","2024-02-12T02:31:51Z","2025-12-13T13:01:36Z","0","","","blank city azerbaijan baku","BLANK_CITY_INFERRED","Baku","Baku","29.302","OVERLAP","NEEDS_HUMAN_ATTENTION","Inferred blank city rows -> 'Baku' using country + coordinates + timeline; distance=29.302 km; timeline=OVERLAP."
"(BLANK_CITY) [Azerbaijan] -> Binǝ","Azerbaijan","4","0","40.466223","50.052708","2024-02-12T18:31:34Z","2025-12-13T17:01:07Z","4","J2 8701 Baku (GYD) - Minsk (MSQ) | Gate 16 | Gate 15 | Azerbaijan Airlines J2 8017 GYD - IKA","2024-02-12T18:31:34Z::J2 8701 Baku (GYD) - Minsk (MSQ) || 2024-02-12T18:37:43Z::Gate 16 || 2024-02-12T18:46:52Z::Gate 15 || 2025-12-13T17:01:07Z::Azerbaijan Airlines J2 8017 GYD - IKA","blank city azerbaijan binǝ","BLANK_CITY_INFERRED","Binǝ","Baku","20.318","OVERLAP","NEEDS_HUMAN_ATTENTION","Inferred blank city rows -> 'Baku' using country + coordinates + timeline; distance=20.318 km; timeline=OVERLAP."
"Bakı","Azerbaijan","2","2","40.3739","49.8484","2024-02-12T08:24:33Z","2025-12-13T05:16:46Z","2","Neftçilər prospekti / Neftchilar avenue | BülBül prospekti / BulBul avenue","2024-02-12T08:24:33Z::Neftçilər prospekti / Neftchilar avenue || 2025-12-13T05:16:46Z::BülBül prospekti / BulBul avenue","bakı","EXPLICIT_MAP","Baku","Baku","0.21","OVERLAP","ACCURATE","Merge 'Bakı' -> 'Baku' via EXPLICIT_MAP; distance=0.21 km; timeline=OVERLAP."
"Baku","Azerbaijan","115","115","40.3726","49.8466","2024-02-12T02:15:36Z","2025-12-13T14:37:52Z","0","","","baku","PASS_THROUGH_SINGLETON","","Baku","0","OVERLAP","ACCURATE","Keep 'Baku' as canonical city via PASS_THROUGH_SINGLETON; timeline=OVERLAP."
"Binǝ","Azerbaijan","8","8","40.4654","50.0523","2024-02-12T02:11:55Z","2025-12-13T14:10:26Z","8","Heydar Aliyev International Airport (GYD) (Heydər Əliyev Beynəlxalq Aeroportu) | Terminal 1 | Gate 8","2024-02-12T02:11:55Z::Heydar Aliyev International Airport (GYD) (Heydər Əliyev Beynəlxalq Aeroportu) || 2024-02-12T02:13:47Z::Terminal 1 || 2024-02-12T15:55:45Z::Heydar Aliyev International Airport (GYD) (Heydər Əliyev Beynəlxalq Aeroportu) || 2024-02-12T16:05:08Z::Terminal 1 || 2024-02-12T16:43:34Z::Gate 8 || 2025-12-13T01:42:45Z::Heydar Aliyev International Airport (GYD) (Heydər Əliyev Beynəlxalq Aeroportu) || 2025-12-13T02:07:08Z::Terminal 1 || 2025-12-13T14:10:26Z::Heydar Aliyev International Airport (GYD) (Heydər Əliyev Beynəlxalq Aeroportu)","binǝ","EXPLICIT_MAP","Baku","Baku","20.241","OVERLAP","ACCURATE","Merge 'Binǝ' -> 'Baku' via EXPLICIT_MAP; distance=20.241 km; timeline=OVERLAP."
"Binə","Azerbaijan","1","1","40.4629","50.0497","2025-12-13T14:11:51Z","2025-12-13T14:11:51Z","1","Terminal 2","2025-12-13T14:11:51Z::Terminal 2","binə","EXPLICIT_MAP","Baku","Baku","19.911","OVERLAP","ACCURATE","Merge 'Binə' -> 'Baku' via EXPLICIT_MAP; distance=19.911 km; timeline=OVERLAP."
"Səbayıl","Azerbaijan","1","1","40.3663","49.837","2025-12-13T10:39:47Z","2025-12-13T10:39:47Z","1","Bazar Square","2025-12-13T10:39:47Z::Bazar Square","səbayıl","EXPLICIT_MAP","Baku","Baku","1.073","OVERLAP","ACCURATE","Merge 'Səbayıl' -> 'Baku' via EXPLICIT_MAP; distance=1.073 km; timeline=OVERLAP."
"Şimal","Azerbaijan","4","4","40.4642","50.0541","2024-02-12T02:12:15Z","2025-12-13T14:26:16Z","4","Runway | Baku Club | Security Control Terminal 2","2024-02-12T02:12:15Z::Runway || 2025-12-13T01:54:33Z::Runway || 2025-12-13T02:31:26Z::Baku Club || 2025-12-13T14:26:16Z::Security Control Terminal 2","simal","EXPLICIT_MAP","Baku","Baku","20.305","OVERLAP","ACCURATE","Merge 'Şimal' -> 'Baku' via EXPLICIT_MAP; distance=20.305 km; timeline=OVERLAP."
"(BLANK_CITY) [Belarus] -> Aina","Belarus","2","0","54.24234","27.731983","2018-09-09T08:58:31Z","2018-09-09T09:54:32Z","2","Гайна | д. Логоза","2018-09-09T08:58:31Z::Гайна || 2018-09-09T09:54:32Z::д. Логоза","blank city belarus aina","BLANK_CITY_INFERRED","Aina","Aina","1.452","OVERLAP","ACCURATE","Inferred blank city rows -> 'Aina' using country + coordinates + timeline; distance=1.452 km; timeline=OVERLAP."
"Aina","Belarus","1","1","54.245","27.7101","2018-09-09T09:02:31Z","2018-09-09T09:02:31Z","1","Родны Кут","2018-09-09T09:02:31Z::Родны Кут","aina","PASS_THROUGH_SINGLETON","","Aina","0","OVERLAP","ACCURATE","Keep 'Aina' as canonical city via PASS_THROUGH_SINGLETON; timeline=OVERLAP."
"(BLANK_CITY) [Belarus] -> Ашмяны","Belarus","8","0","54.395266","26.034863","2015-07-15T06:46:37Z","2023-06-25T18:40:28Z","8","Ошмяны | ""Нявесцiн Камень"" | Ошмянская синагога | Мурашмянка | Белоруснефть | Магистраль М7/E 28 Минск—Ошмяны","2015-07-15T06:46:37Z::Ошмяны || 2018-11-04T06:00:23Z::""Нявесцiн Камень"" || 2018-11-04T07:17:29Z::Ошмяны || 2018-11-04T08:13:54Z::Ошмянская синагога || 2018-11-04T09:54:10Z::Мурашмянка || 2022-11-04T21:54:44Z::Белоруснефть || 2022-11-25T22:01:46Z::Белоруснефть || 2023-06-25T18:40:28Z::Магистраль М7/E 28 Минск—Ошмяны","blank city belarus ашмяны","BLANK_CITY_INFERRED","Ашмяны","Ashmyany","7.134","OVERLAP","NEEDS_HUMAN_ATTENTION","Inferred blank city rows -> 'Ashmyany' using country + coordinates + timeline; distance=7.134 km; timeline=OVERLAP."
"Ashmyany","Belarus","1","1","54.4233","25.9357","2018-11-04T07:36:57Z","2018-11-04T07:36:57Z","1","Костел св. Михаила Архангела","2018-11-04T07:36:57Z::Костел св. Михаила Архангела","ashmyany","PASS_THROUGH_SINGLETON","","Ashmyany","0","OVERLAP","ACCURATE","Keep 'Ashmyany' as canonical city via PASS_THROUGH_SINGLETON; timeline=OVERLAP."
"Ašmiany","Belarus","2","2","54.4248","25.9451","2018-11-04T07:20:47Z","2018-11-04T07:51:53Z","2","Руины Францисканского Костёла | Евроопт Market","2018-11-04T07:20:47Z::Руины Францисканского Костёла || 2018-11-04T07:51:53Z::Евроопт Market","asmiany","EXPLICIT_MAP","Ashmyany","Ashmyany","0.631","OVERLAP","ACCURATE","Merge 'Ašmiany' -> 'Ashmyany' via EXPLICIT_MAP; distance=0.631 km; timeline=OVERLAP."
"Ашмяны","Belarus","6","6","54.4246","25.9363","2015-07-15T06:48:46Z","2023-10-03T17:43:50Z","6","Автостанция","2015-07-15T06:48:46Z::Автостанция || 2022-08-06T04:29:45Z::Автостанция || 2022-11-04T22:23:39Z::Автостанция || 2023-01-27T22:30:21Z::Автостанция || 2023-05-12T22:23:37Z::Автостанция || 2023-10-03T17:43:50Z::Автостанция","ашмяны","EXPLICIT_MAP","Ashmyany","Ashmyany","0.15","OVERLAP","ACCURATE","Merge 'Ашмяны' -> 'Ashmyany' via EXPLICIT_MAP; distance=0.15 km; timeline=OVERLAP."
"(BLANK_CITY) [Belarus] -> Осиповичи","Belarus","6","0","53.503201","28.615815","2018-11-11T06:45:51Z","2024-04-12T20:06:56Z","6","Лапичи | Jornovka | Гродзянка | Зенанполье | Горки | Осиповичи","2018-11-11T06:45:51Z::Лапичи || 2018-11-11T07:11:03Z::Jornovka || 2018-11-11T07:48:07Z::Гродзянка || 2018-11-11T09:21:47Z::Зенанполье || 2018-11-11T09:43:37Z::Горки || 2024-04-12T20:06:56Z::Осиповичи","blank city belarus осиповичи","BLANK_CITY_INFERRED","Осиповичи","Asipovichy","22.298","NO_OVERLAP","NEEDS_HUMAN_ATTENTION","Inferred blank city rows -> 'Asipovichy' using country + coordinates + timeline; distance=22.298 km; timeline=NO_OVERLAP."
"Asipovichy","Belarus","10","10","53.3032","28.6403","2024-04-12T20:19:02Z","2024-04-13T11:32:39Z","10","Памятник Ленину | Дом Жукова | Паровоз | Глобус | площадь Ленина | Золотая рыбка | Привокзальная площадь | Зал ожидания","2024-04-12T20:19:02Z::Памятник Ленину || 2024-04-13T08:38:01Z::Дом Жукова || 2024-04-13T08:48:41Z::Памятник Ленину || 2024-04-13T09:22:01Z::Паровоз || 2024-04-13T09:30:54Z::Глобус || 2024-04-13T09:35:26Z::площадь Ленина || 2024-04-13T09:36:42Z::Памятник Ленину || 2024-04-13T09:47:22Z::Золотая рыбка || 2024-04-13T11:22:56Z::Привокзальная площадь || 2024-04-13T11:32:39Z::Зал ожидания","asipovichy","PASS_THROUGH_SINGLETON","","Asipovichy","0","OVERLAP","ACCURATE","Keep 'Asipovichy' as canonical city via PASS_THROUGH_SINGLETON; timeline=OVERLAP."
"Осиповичи","Belarus","7","7","53.2993","28.6424","2018-11-07T15:49:50Z","2024-04-13T11:25:15Z","7","Электричка Осиповичи — Минск | Станция Осиповичи-1 | Парк им. 50-летия Октября | Дом 8 | Водонапорная башня","2018-11-07T15:49:50Z::Электричка Осиповичи — Минск || 2024-04-12T20:10:21Z::Станция Осиповичи-1 || 2024-04-12T20:17:55Z::Парк им. 50-летия Октября || 2024-04-12T20:38:57Z::Дом 8 || 2024-04-13T08:47:02Z::Парк им. 50-летия Октября || 2024-04-13T09:11:21Z::Водонапорная башня || 2024-04-13T11:25:15Z::Станция Осиповичи-1","осиповичи","EXPLICIT_MAP","Asipovichy","Asipovichy","0.456","OVERLAP","ACCURATE","Merge 'Осиповичи' -> 'Asipovichy' via EXPLICIT_MAP; distance=0.456 km; timeline=OVERLAP."
"(BLANK_CITY) [Belarus] -> Astrashytski Haradok","Belarus","3","0","54.083628","27.704247","2017-09-17T06:52:23Z","2018-09-09T12:28:11Z","3","Фестиваль Белый Кролик | Острошицы | Дамба в Острошицком","2017-09-17T06:52:23Z::Фестиваль Белый Кролик || 2018-09-09T11:25:08Z::Острошицы || 2018-09-09T12:28:11Z::Дамба в Острошицком","blank city belarus astrashytski haradok","BLANK_CITY_INFERRED","Astrashytski Haradok","Astrashytski Haradok","2.511","OVERLAP","ACCURATE","Inferred blank city rows -> 'Astrashytski Haradok' using country + coordinates + timeline; distance=2.511 km; timeline=OVERLAP."
"Astrashytski Haradok","Belarus","3","3","54.065","27.6825","2017-09-16T08:10:14Z","2018-09-09T12:28:17Z","3","База Отдыха «Дружба» | Острошицкий Городок | Родны Кут","2017-09-16T08:10:14Z::База Отдыха «Дружба» || 2018-09-09T11:52:31Z::Острошицкий Городок || 2018-09-09T12:28:17Z::Родны Кут","astrashytski haradok","PASS_THROUGH_SINGLETON","","Astrashytski Haradok","0","OVERLAP","ACCURATE","Keep 'Astrashytski Haradok' as canonical city via PASS_THROUGH_SINGLETON; timeline=OVERLAP."
"(BLANK_CITY) [Belarus] -> Babruysk","Belarus","12","0","53.151551","29.185283","2018-06-16T06:48:45Z","2024-04-13T17:28:00Z","0","","","blank city belarus babruysk","BLANK_CITY_INFERRED","Babruysk","Babruysk","2.659","OVERLAP","ACCURATE","Inferred blank city rows -> 'Babruysk' using country + coordinates + timeline; distance=2.659 km; timeline=OVERLAP."
"Babruysk","Belarus","40","40","53.1399","29.2201","2013-02-10T18:07:37Z","2024-04-13T17:05:00Z","0","","","babruysk","PASS_THROUGH_SINGLETON","","Babruysk","0","OVERLAP","ACCURATE","Keep 'Babruysk' as canonical city via PASS_THROUGH_SINGLETON; timeline=OVERLAP."
"Baranavichy","Belarus","25","25","53.1319","26.0207","2023-09-23T09:03:17Z","2025-06-15T09:57:47Z","0","","","baranavichy","EXPLICIT_MAP","Baranovichi","Baranavichy","0","OVERLAP","ACCURATE","Merge 'Baranavichy' -> 'Baranavichy' via EXPLICIT_MAP; distance=0 km; timeline=OVERLAP."
"(BLANK_CITY) [Belarus] -> Baranovichi","Belarus","26","0","53.066575","25.926031","2014-07-29T07:54:41Z","2025-06-15T08:42:58Z","0","","","blank city belarus baranovichi","BLANK_CITY_INFERRED","Baranovichi","Baranovichi","9.945","OVERLAP","NEEDS_HUMAN_ATTENTION","Inferred blank city rows -> 'Baranovichi' using country + coordinates + timeline; distance=9.945 km; timeline=OVERLAP."
"Baranavičy","Belarus","4","4","53.1321","26.0179","2023-09-23T09:06:51Z","2025-06-15T09:55:40Z","4","Помнік Ахвярам Гета | Альфа Банк | Аматиста | Сквер Железнодорожников","2023-09-23T09:06:51Z::Помнік Ахвярам Гета || 2023-09-23T11:54:15Z::Альфа Банк || 2025-06-14T18:22:18Z::Аматиста || 2025-06-15T09:55:40Z::Сквер Железнодорожников","baranavicy","EXPLICIT_MAP","Baranovichi","Baranovichi","0.647","OVERLAP","ACCURATE","Merge 'Baranavičy' -> 'Baranovichi' via EXPLICIT_MAP; distance=0.647 km; timeline=OVERLAP."
"Baranovichi","Belarus","63","63","53.132","26.0276","2014-07-29T07:54:51Z","2025-06-15T10:09:52Z","0","","","baranovichi","EXPLICIT_MAP","Baranavichy","Baranovichi","0","OVERLAP","ACCURATE","Merge 'Baranovichi' -> 'Baranovichi' via EXPLICIT_MAP; distance=0 km; timeline=OVERLAP."
"(BLANK_CITY) [Belarus] -> Benitsa","Belarus","2","0","54.346878","26.556594","2018-10-20T08:32:00Z","2023-07-16T16:31:45Z","2","Беница | Беніца","2018-10-20T08:32:00Z::Беница || 2023-07-16T16:31:45Z::Беніца","blank city belarus benitsa","BLANK_CITY_INFERRED","Benitsa","Benitsa","5.315","OVERLAP","NEEDS_HUMAN_ATTENTION","Inferred blank city rows -> 'Benitsa' using country + coordinates + timeline; distance=5.315 km; timeline=OVERLAP."
"Benitsa","Belarus","3","3","54.3861","26.6035","2018-09-01T08:25:24Z","2023-07-16T16:34:14Z","3","касьцёл Беніца","2018-09-01T08:25:24Z::касьцёл Беніца || 2018-10-20T08:30:38Z::касьцёл Беніца || 2023-07-16T16:34:14Z::касьцёл Беніца","benitsa","PASS_THROUGH_SINGLETON","","Benitsa","0","OVERLAP","ACCURATE","Keep 'Benitsa' as canonical city via PASS_THROUGH_SINGLETON; timeline=OVERLAP."
"(BLANK_CITY) [Belarus] -> д. Бенякони","Belarus","1","0","54.15002","25.31353","2024-07-27T02:20:00Z","2024-07-27T02:20:00Z","1","Автостанция Вороново","2024-07-27T02:20:00Z::Автостанция Вороново","blank city belarus д бенякони","BLANK_CITY_INFERRED","д. Бенякони","Benyakoni",,"UNKNOWN","NEEDS_HUMAN_ATTENTION","Inferred blank city rows -> 'Benyakoni' using country + coordinates + timeline; distance=n/a; timeline=UNKNOWN."
"д. Бенякони","Belarus","9","9","54.2704","25.3735","2022-12-17T10:53:58Z","2025-08-02T16:12:33Z","9","Пункт пропуска «Бенякони»","2022-12-17T10:53:58Z::Пункт пропуска «Бенякони» || 2023-02-04T02:51:41Z::Пункт пропуска «Бенякони» || 2023-02-18T03:00:41Z::Пункт пропуска «Бенякони» || 2023-02-19T19:42:35Z::Пункт пропуска «Бенякони» || 2024-07-27T02:54:25Z::Пункт пропуска «Бенякони» || 2024-08-23T02:54:41Z::Пункт пропуска «Бенякони» || 2024-10-04T02:37:11Z::Пункт пропуска «Бенякони» || 2025-05-03T02:41:42Z::Пункт пропуска «Бенякони» || 2025-08-02T16:12:33Z::Пункт пропуска «Бенякони»","д бенякони","EXPLICIT_MAP","Benyakoni","Benyakoni",,"UNKNOWN","NEEDS_HUMAN_ATTENTION","Merge 'д. Бенякони' -> 'Benyakoni' via EXPLICIT_MAP; distance=n/a; timeline=UNKNOWN."
"(BLANK_CITY) [Belarus] -> Biahoml","Belarus","2","0","54.757118","28.318117","2017-07-22T09:45:41Z","2017-07-22T10:01:44Z","2","Березинский биосферный заповедник | Березинский зоопарк","2017-07-22T09:45:41Z::Березинский биосферный заповедник || 2017-07-22T10:01:44Z::Березинский зоопарк","blank city belarus biahoml","BLANK_CITY_INFERRED","Biahoml","Biahoml","16.532","NO_OVERLAP","NEEDS_HUMAN_ATTENTION","Inferred blank city rows -> 'Biahoml' using country + coordinates + timeline; distance=16.532 km; timeline=NO_OVERLAP."
"Biahoml","Belarus","1","1","54.7296","28.065","2019-06-21T18:29:22Z","2019-06-21T18:29:22Z","1","Самолет","2019-06-21T18:29:22Z::Самолет","biahoml","PASS_THROUGH_SINGLETON","","Biahoml","0","OVERLAP","ACCURATE","Keep 'Biahoml' as canonical city via PASS_THROUGH_SINGLETON; timeline=OVERLAP."
"Biaroza","Belarus","1","1","52.5379","24.9729","2024-07-20T09:10:40Z","2024-07-20T09:10:40Z","1","Санта","2024-07-20T09:10:40Z::Санта","biaroza","PASS_THROUGH_SINGLETON","","Biaroza","0","OVERLAP","ACCURATE","Keep 'Biaroza' as canonical city via PASS_THROUGH_SINGLETON; timeline=OVERLAP."
"Bielaja","Belarus","1","1","52.5799","23.7245","2024-07-20T20:10:39Z","2024-07-20T20:10:39Z","1","Polsky Mayontak Agrousadba","2024-07-20T20:10:39Z::Polsky Mayontak Agrousadba","bielaja","PASS_THROUGH_SINGLETON","","Bielaja","0","OVERLAP","ACCURATE","Keep 'Bielaja' as canonical city via PASS_THROUGH_SINGLETON; timeline=OVERLAP."
"Бабруйск","Belarus","2","2","53.1419","29.2188","2018-06-16T15:58:25Z","2024-04-13T15:36:04Z","2","Касьцёл Беззаганнага Пачацьця Найсьвяцейшай Панны Марыi","2018-06-16T15:58:25Z::Касьцёл Беззаганнага Пачацьця Найсьвяцейшай Панны Марыi || 2024-04-13T15:36:04Z::Касьцёл Беззаганнага Пачацьця Найсьвяцейшай Панны Марыi","бабруиск","EXPLICIT_MAP","Bobruisk","Bobruisk",,"UNKNOWN","NEEDS_HUMAN_ATTENTION","Merge 'Бабруйск' -> 'Bobruisk' via EXPLICIT_MAP; distance=n/a; timeline=UNKNOWN."
"Бобруйск","Belarus","19","19","53.1399","29.222","2018-06-16T07:18:09Z","2024-04-13T16:31:42Z","0","","","бобруиск","EXPLICIT_MAP","Bobruisk","Bobruisk",,"UNKNOWN","NEEDS_HUMAN_ATTENTION","Merge 'Бобруйск' -> 'Bobruisk' via EXPLICIT_MAP; distance=n/a; timeline=UNKNOWN."
"(BLANK_CITY) [Belarus] -> Bogushi","Belarus","1","0","54.354465","26.34586","2018-09-01T14:42:45Z","2018-09-01T14:42:45Z","1","Свято-Введенский Cтавропигиальный Женский Монастырь","2018-09-01T14:42:45Z::Свято-Введенский Cтавропигиальный Женский Монастырь","blank city belarus bogushi","BLANK_CITY_INFERRED","Bogushi","Bogushi","0.422","NO_OVERLAP","ACCURATE","Inferred blank city rows -> 'Bogushi' using country + coordinates + timeline; distance=0.422 km; timeline=NO_OVERLAP."
"Bogushi","Belarus","1","1","54.3515","26.3418","2018-09-01T14:41:27Z","2018-09-01T14:41:27Z","1","Богуши","2018-09-01T14:41:27Z::Богуши","bogushi","PASS_THROUGH_SINGLETON","","Bogushi","0","OVERLAP","ACCURATE","Keep 'Bogushi' as canonical city via PASS_THROUGH_SINGLETON; timeline=OVERLAP."
"(BLANK_CITY) [Belarus] -> Борисов","Belarus","21","0","54.221974","28.581559","2018-04-07T07:57:17Z","2024-05-17T21:23:40Z","0","","","blank city belarus борисов","BLANK_CITY_INFERRED","Борисов","Borisov","5.946","OVERLAP","NEEDS_HUMAN_ATTENTION","Inferred blank city rows -> 'Borisov' using country + coordinates + timeline; distance=5.946 km; timeline=OVERLAP."
"Barysaŭ","Belarus","4","4","54.2172","28.5195","2018-04-07T07:47:55Z","2020-10-21T06:05:37Z","4","Шуховская башня | Памятник Ленину | Склад Артстрой Борисов","2018-04-07T07:47:55Z::Шуховская башня || 2018-04-07T15:25:44Z::Памятник Ленину || 2020-10-21T06:04:51Z::Склад Артстрой Борисов || 2020-10-21T06:05:37Z::Шуховская башня","barysau","EXPLICIT_MAP","Borisov","Borisov","1.976","OVERLAP","ACCURATE","Merge 'Barysaŭ' -> 'Borisov' via EXPLICIT_MAP; distance=1.976 km; timeline=OVERLAP."
"Barysaw","Belarus","2","2","54.2036","28.4947","2018-04-07T07:14:24Z","2018-04-07T10:57:48Z","2","Проспект Революции | Мемориал Звезда","2018-04-07T07:14:24Z::Проспект Революции || 2018-04-07T10:57:48Z::Мемориал Звезда","barysaw","EXPLICIT_MAP","Borisov","Borisov","0.544","OVERLAP","ACCURATE","Merge 'Barysaw' -> 'Borisov' via EXPLICIT_MAP; distance=0.544 km; timeline=OVERLAP."
"Borisov","Belarus","7","7","54.2084","28.4931","2018-04-07T07:19:46Z","2023-09-11T03:37:31Z","7","Городской парк | Автовокзал / Bus Station | Borisov Arena (Борисов-Арена) | Улица 50 лет БССР | Площадь Ленина","2018-04-07T07:19:46Z::Городской парк || 2018-04-07T08:53:10Z::Автовокзал / Bus Station || 2018-04-07T10:25:31Z::Borisov Arena (Борисов-Арена) || 2018-04-07T12:34:39Z::Улица 50 лет БССР || 2018-04-07T14:56:21Z::Площадь Ленина || 2020-10-21T06:21:37Z::Borisov Arena (Борисов-Арена) || 2023-09-11T03:37:31Z::Автовокзал / Bus Station","borisov","PASS_THROUGH_SINGLETON","","Borisov","0","OVERLAP","ACCURATE","Keep 'Borisov' as canonical city via PASS_THROUGH_SINGLETON; timeline=OVERLAP."
"Борисов","Belarus","15","15","54.2188","28.5064","2018-04-07T07:00:22Z","2024-07-13T05:39:00Z","0","","","борисов","EXPLICIT_MAP","Borisov","Borisov","1.444","OVERLAP","ACCURATE","Merge 'Борисов' -> 'Borisov' via EXPLICIT_MAP; distance=1.444 km; timeline=OVERLAP."
"Браслав","Belarus","6","6","55.6481","27.0289","2021-05-15T09:49:20Z","2023-07-22T09:27:28Z","6","П. Гусаровщина, Браславские озера | Пляж | Дорога желаний | Золотая Рыбка | 12 стульев","2021-05-15T09:49:20Z::П. Гусаровщина, Браславские озера || 2021-05-16T13:15:28Z::Пляж || 2023-07-22T08:34:56Z::Дорога желаний || 2023-07-22T08:40:25Z::Пляж || 2023-07-22T09:13:25Z::Золотая Рыбка || 2023-07-22T09:27:28Z::12 стульев","браслав","EXPLICIT_MAP","Braslav","Braslav",,"UNKNOWN","NEEDS_HUMAN_ATTENTION","Merge 'Браслав' -> 'Braslav' via EXPLICIT_MAP; distance=n/a; timeline=UNKNOWN."
"(BLANK_CITY) [Belarus] -> Braslaw","Belarus","22","0","55.673459","27.023448","2021-05-14T17:17:12Z","2023-07-22T10:08:26Z","0","","","blank city belarus braslaw","BLANK_CITY_INFERRED","Braslaw","Braslaw","2.614","OVERLAP","ACCURATE","Inferred blank city rows -> 'Braslaw' using country + coordinates + timeline; distance=2.614 km; timeline=OVERLAP."
"Braslaw","Belarus","8","8","55.6505","27.0324","2021-05-14T17:35:18Z","2023-07-22T09:15:34Z","8","Мемориал | Виталич | Национальный парк «Браслаские озёра» | Родник Окоменица | Городище «Замковая гора» | Ресторан «Braslav Lakes» | Маршрутка Браслав - Минск","2021-05-14T17:35:18Z::Мемориал || 2021-05-14T17:50:21Z::Виталич || 2021-05-14T18:38:10Z::Национальный парк «Браслаские озёра» || 2021-05-15T11:30:27Z::Родник Окоменица || 2021-05-16T10:48:16Z::Городище «Замковая гора» || 2021-05-16T11:56:20Z::Ресторан «Braslav Lakes» || 2021-05-16T15:01:41Z::Маршрутка Браслав - Минск || 2023-07-22T09:15:34Z::Мемориал","braslaw","PASS_THROUGH_SINGLETON","","Braslaw","0","OVERLAP","ACCURATE","Keep 'Braslaw' as canonical city via PASS_THROUGH_SINGLETON; timeline=OVERLAP."
"(BLANK_CITY) [Belarus] -> Brest","Belarus","32","0","52.108499","23.78494","2014-04-29T10:59:23Z","2025-11-14T11:20:03Z","0","","","blank city belarus brest","BLANK_CITY_INFERRED","Brest","Brest","7.301","OVERLAP","NEEDS_HUMAN_ATTENTION","Inferred blank city rows -> 'Brest' using country + coordinates + timeline; distance=7.301 km; timeline=OVERLAP."
"Brest","Belarus","297","297","52.0904","23.6822","2013-04-12T18:52:15Z","2025-11-14T07:09:00Z","0","","","brest","PASS_THROUGH_SINGLETON","","Brest","0","OVERLAP","ACCURATE","Keep 'Brest' as canonical city via PASS_THROUGH_SINGLETON; timeline=OVERLAP."
"Брест","Belarus","14","14","52.0993","23.679","2013-05-28T22:42:59Z","2024-07-21T15:50:36Z","0","","","брест","EXPLICIT_MAP","Brest","Brest","1.013","OVERLAP","ACCURATE","Merge 'Брест' -> 'Brest' via EXPLICIT_MAP; distance=1.013 km; timeline=OVERLAP."
"(BLANK_CITY) [Belarus] -> Byaroza","Belarus","2","0","52.537534","24.975301","2024-07-20T08:58:55Z","2024-07-20T09:03:25Z","2","Берёза | Комсомольский сквер","2024-07-20T08:58:55Z::Берёза || 2024-07-20T09:03:25Z::Комсомольский сквер","blank city belarus byaroza","BLANK_CITY_INFERRED","Byaroza","Byaroza","0.422","OVERLAP","ACCURATE","Inferred blank city rows -> 'Byaroza' using country + coordinates + timeline; distance=0.422 km; timeline=OVERLAP."
"Byaroza","Belarus","3","3","52.5404","24.9794","2024-07-20T08:58:23Z","2024-07-20T09:30:38Z","3","Березовский валун | братская могила | Станция «Берёза-Город»","2024-07-20T08:58:23Z::Березовский валун || 2024-07-20T09:03:56Z::братская могила || 2024-07-20T09:30:38Z::Станция «Берёза-Город»","byaroza","PASS_THROUGH_SINGLETON","","Byaroza","0","OVERLAP","ACCURATE","Keep 'Byaroza' as canonical city via PASS_THROUGH_SINGLETON; timeline=OVERLAP."
"Bykhaw","Belarus","1","1","53.5184","30.2567","2018-06-10T08:30:31Z","2018-06-10T08:30:31Z","1","Быховский замок","2018-06-10T08:30:31Z::Быховский замок","bykhaw","PASS_THROUGH_SINGLETON","","Bykhaw","0","OVERLAP","ACCURATE","Keep 'Bykhaw' as canonical city via PASS_THROUGH_SINGLETON; timeline=OVERLAP."
"(BLANK_CITY) [Belarus] -> Bychaŭ","Belarus","4","0","53.519778","30.245061","2018-06-10T06:59:14Z","2018-06-10T08:15:58Z","4","Быхов | Быхов. жд Станция | Быхов Фонтаны | Церковь Святой Троицы","2018-06-10T06:59:14Z::Быхов || 2018-06-10T07:00:23Z::Быхов. жд Станция || 2018-06-10T07:25:37Z::Быхов Фонтаны || 2018-06-10T08:15:58Z::Церковь Святой Троицы","blank city belarus bychau","BLANK_CITY_INFERRED","Bychaŭ","Bykhov",,"UNKNOWN","NEEDS_HUMAN_ATTENTION","Inferred blank city rows -> 'Bykhov' using country + coordinates + timeline; distance=n/a; timeline=UNKNOWN."
"Bychaŭ","Belarus","10","10","53.5174","30.2476","2018-06-10T07:07:35Z","2018-06-10T10:52:14Z","10","Скульптура Сустрэча - Развітанне | Квартал | Памятник Ленину | Остров Памяти | Мемориал Победы | Днепр | Памятник Баркулабовской Летописи | Октябрьская Площадь | Памятник Пионеру-Герою Марату Козлову | Жодино - Могилёв","2018-06-10T07:07:35Z::Скульптура Сустрэча - Развітанне || 2018-06-10T07:18:46Z::Квартал || 2018-06-10T07:59:54Z::Памятник Ленину || 2018-06-10T08:12:01Z::Остров Памяти || 2018-06-10T09:25:18Z::Мемориал Победы || 2018-06-10T09:46:00Z::Днепр || 2018-06-10T10:10:38Z::Памятник Баркулабовской Летописи || 2018-06-10T10:13:28Z::Октябрьская Площадь || 2018-06-10T10:36:08Z::Памятник Пионеру-Герою Марату Козлову || 2018-06-10T10:52:14Z::Жодино - Могилёв","bychau","EXPLICIT_MAP","Bykhov","Bykhov",,"UNKNOWN","NEEDS_HUMAN_ATTENTION","Merge 'Bychaŭ' -> 'Bykhov' via EXPLICIT_MAP; distance=n/a; timeline=UNKNOWN."
"Быхов","Belarus","2","2","53.5184","30.2505","2018-06-10T07:54:37Z","2018-06-10T09:22:10Z","2","Мемориал Морской Славы | Синагога","2018-06-10T07:54:37Z::Мемориал Морской Славы || 2018-06-10T09:22:10Z::Синагога","быхов","EXPLICIT_MAP","Bykhov","Bykhov",,"UNKNOWN","NEEDS_HUMAN_ATTENTION","Merge 'Быхов' -> 'Bykhov' via EXPLICIT_MAP; distance=n/a; timeline=UNKNOWN."
"(BLANK_CITY) [Belarus] -> Chervyen’ski Rayon","Belarus","1","0","53.861376","28.428364","2018-11-11T15:57:15Z","2018-11-11T15:57:15Z","1","Замосточье","2018-11-11T15:57:15Z::Замосточье","blank city belarus chervyen ski rayon","BLANK_CITY_INFERRED","Chervyen’ski Rayon","Chervyen’ski Rayon","4.691","NO_OVERLAP","ACCURATE","Inferred blank city rows -> 'Chervyen’ski Rayon' using country + coordinates + timeline; distance=4.691 km; timeline=NO_OVERLAP."
"Chervyen’ski Rayon","Belarus","1","1","53.8881","28.373","2018-11-11T16:20:39Z","2018-11-11T16:20:39Z","1","Рудня","2018-11-11T16:20:39Z::Рудня","chervyen ski rayon","PASS_THROUGH_SINGLETON","","Chervyen’ski Rayon","0","OVERLAP","ACCURATE","Keep 'Chervyen’ski Rayon' as canonical city via PASS_THROUGH_SINGLETON; timeline=OVERLAP."
"(BLANK_CITY) [Belarus] -> Чики","Belarus","3","0","53.833048","27.135767","2018-09-22T08:44:14Z","2018-09-22T10:58:09Z","3","Родник Юцковский | Вербники | Гора Дзержинская","2018-09-22T08:44:14Z::Родник Юцковский || 2018-09-22T10:20:05Z::Вербники || 2018-09-22T10:58:09Z::Гора Дзержинская","blank city belarus чики","BLANK_CITY_INFERRED","Чики","Chiki",,"UNKNOWN","NEEDS_HUMAN_ATTENTION","Inferred blank city rows -> 'Chiki' using country + coordinates + timeline; distance=n/a; timeline=UNKNOWN."
"Чики","Belarus","3","3","53.802","27.2856","2018-09-22T09:37:16Z","2019-07-28T12:07:30Z","3","Чики","2018-09-22T09:37:16Z::Чики || 2019-04-14T07:46:23Z::Чики || 2019-07-28T12:07:30Z::Чики","чики","EXPLICIT_MAP","Chiki","Chiki",,"UNKNOWN","NEEDS_HUMAN_ATTENTION","Merge 'Чики' -> 'Chiki' via EXPLICIT_MAP; distance=n/a; timeline=UNKNOWN."
"Dabrejka","Belarus","1","1","54.0954","30.3602","2024-07-13T16:09:15Z","2024-07-13T16:09:15Z","1","Корона","2024-07-13T16:09:15Z::Корона","dabrejka","PASS_THROUGH_SINGLETON","","Dabrejka","0","OVERLAP","ACCURATE","Keep 'Dabrejka' as canonical city via PASS_THROUGH_SINGLETON; timeline=OVERLAP."
"(BLANK_CITY) [Belarus] -> Дегтяревка","Belarus","1","0","53.894407","27.327402","2018-09-29T15:10:00Z","2018-09-29T15:10:00Z","1","Усадьба Таборы","2018-09-29T15:10:00Z::Усадьба Таборы","blank city belarus дегтяревка","BLANK_CITY_INFERRED","Дегтяревка","Dehtaryowka",,"UNKNOWN","NEEDS_HUMAN_ATTENTION","Inferred blank city rows -> 'Dehtaryowka' using country + coordinates + timeline; distance=n/a; timeline=UNKNOWN."
"Дегтяревка","Belarus","2","2","53.8855","27.378","2018-06-17T11:51:15Z","2018-09-29T15:22:50Z","2","Дегтяревка","2018-06-17T11:51:15Z::Дегтяревка || 2018-09-29T15:22:50Z::Дегтяревка","дегтяревка","EXPLICIT_MAP","Dehtaryowka","Dehtaryowka",,"UNKNOWN","NEEDS_HUMAN_ATTENTION","Merge 'Дегтяревка' -> 'Dehtaryowka' via EXPLICIT_MAP; distance=n/a; timeline=UNKNOWN."
"(BLANK_CITY) [Belarus] -> Домошаны","Belarus","21","0","53.990623","27.955789","2025-02-01T14:59:54Z","2025-10-18T08:36:09Z","0","","","blank city belarus домошаны","BLANK_CITY_INFERRED","Домошаны","Domoshany",,"UNKNOWN","NEEDS_HUMAN_ATTENTION","Inferred blank city rows -> 'Domoshany' using country + coordinates + timeline; distance=n/a; timeline=UNKNOWN."
"Домошаны","Belarus","7","7","53.9932","27.9512","2025-02-01T14:55:03Z","2025-10-18T08:48:30Z","7","о. п. Домашаны","2025-02-01T14:55:03Z::о. п. Домашаны || 2025-07-09T15:46:56Z::о. п. Домашаны || 2025-07-27T15:29:39Z::о. п. Домашаны || 2025-09-06T15:30:19Z::о. п. Домашаны || 2025-09-07T10:17:27Z::о. п. Домашаны || 2025-10-17T16:52:58Z::о. п. Домашаны || 2025-10-18T08:48:30Z::о. п. Домашаны","домошаны","EXPLICIT_MAP","Domoshany","Domoshany",,"UNKNOWN","NEEDS_HUMAN_ATTENTION","Merge 'Домошаны' -> 'Domoshany' via EXPLICIT_MAP; distance=n/a; timeline=UNKNOWN."
"(BLANK_CITY) [Belarus] -> Dzyarzhynsk","Belarus","12","0","53.696339","27.105753","2018-09-22T07:30:50Z","2019-04-14T11:22:05Z","0","","","blank city belarus dzyarzhynsk","BLANK_CITY_INFERRED","Dzyarzhynsk","Dzyarzhynsk","2.424","OVERLAP","ACCURATE","Inferred blank city rows -> 'Dzyarzhynsk' using country + coordinates + timeline; distance=2.424 km; timeline=OVERLAP."
"Dzyarzhynsk","Belarus","4","4","53.6831","27.135","2019-04-06T06:47:43Z","2023-04-15T13:58:21Z","4","Станция «Дзержинск» | Магазин ""Чабарок"" | Универмаг | Ж/д станция Койданово","2019-04-06T06:47:43Z::Станция «Дзержинск» || 2019-04-06T07:14:01Z::Магазин ""Чабарок"" || 2019-04-14T09:41:27Z::Универмаг || 2023-04-15T13:58:21Z::Ж/д станция Койданово","dzyarzhynsk","PASS_THROUGH_SINGLETON","","Dzyarzhynsk","0","OVERLAP","ACCURATE","Keep 'Dzyarzhynsk' as canonical city via PASS_THROUGH_SINGLETON; timeline=OVERLAP."
"(BLANK_CITY) [Belarus] -> Dzyarzhynski Rayon","Belarus","2","0","53.587879","27.073512","2018-10-07T07:02:33Z","2018-10-07T07:43:24Z","2","станция Негорелое | д. Гарбузы","2018-10-07T07:02:33Z::станция Негорелое || 2018-10-07T07:43:24Z::д. Гарбузы","blank city belarus dzyarzhynski rayon","BLANK_CITY_INFERRED","Dzyarzhynski Rayon","Dzyarzhynski Rayon","2.158","OVERLAP","ACCURATE","Inferred blank city rows -> 'Dzyarzhynski Rayon' using country + coordinates + timeline; distance=2.158 km; timeline=OVERLAP."
"Dzyarzhynski Rayon","Belarus","1","1","53.6072","27.0705","2018-10-07T07:05:59Z","2018-10-07T07:05:59Z","1","Негорелое","2018-10-07T07:05:59Z::Негорелое","dzyarzhynski rayon","PASS_THROUGH_SINGLETON","","Dzyarzhynski Rayon","0","OVERLAP","ACCURATE","Keep 'Dzyarzhynski Rayon' as canonical city via PASS_THROUGH_SINGLETON; timeline=OVERLAP."
"(BLANK_CITY) [Belarus] -> Fanipol","Belarus","2","0","53.754024","27.333946","2019-04-06T13:06:59Z","2019-04-06T13:21:00Z","2","Чэркасы | Фаниполь","2019-04-06T13:06:59Z::Чэркасы || 2019-04-06T13:21:00Z::Фаниполь","blank city belarus fanipol","BLANK_CITY_INFERRED","Fanipol","Fanipol","0.081","NO_OVERLAP","ACCURATE","Inferred blank city rows -> 'Fanipol' using country + coordinates + timeline; distance=0.081 km; timeline=NO_OVERLAP."
"Fanipol","Belarus","1","1","53.7533","27.334","2019-04-06T13:33:37Z","2019-04-06T13:33:37Z","1","Евроопт Market","2019-04-06T13:33:37Z::Евроопт Market","fanipol","PASS_THROUGH_SINGLETON","","Fanipol","0","OVERLAP","ACCURATE","Keep 'Fanipol' as canonical city via PASS_THROUGH_SINGLETON; timeline=OVERLAP."
"(BLANK_CITY) [Belarus] -> Gomel","Belarus","25","0","52.425512","31.00569","2014-12-25T04:19:59Z","2022-04-09T14:51:49Z","0","","","blank city belarus gomel","BLANK_CITY_INFERRED","Gomel","Gomel","0.237","OVERLAP","ACCURATE","Inferred blank city rows -> 'Gomel' using country + coordinates + timeline; distance=0.237 km; timeline=OVERLAP."
"Gomel","Belarus","198","198","52.4234","31.0062","2013-02-10T14:24:25Z","2022-04-09T16:05:14Z","0","","","gomel","PASS_THROUGH_SINGLETON","","Gomel","0","OVERLAP","ACCURATE","Keep 'Gomel' as canonical city via PASS_THROUGH_SINGLETON; timeline=OVERLAP."
"Homieĺ","Belarus","14","14","52.4303","30.9973","2018-06-25T03:35:36Z","2022-04-09T15:53:42Z","0","","","homiel","EXPLICIT_MAP","Gomel","Gomel","0.976","OVERLAP","ACCURATE","Merge 'Homieĺ' -> 'Gomel' via EXPLICIT_MAP; distance=0.976 km; timeline=OVERLAP."
"Гомель","Belarus","1","1","52.4223","31.0063","2021-06-27T12:14:54Z","2021-06-27T12:14:54Z","1","Internacyjanalnaja St (вул. Інтэрнацыянальная)","2021-06-27T12:14:54Z::Internacyjanalnaja St (вул. Інтэрнацыянальная)","гомель","EXPLICIT_MAP","Gomel","Gomel","0.123","OVERLAP","ACCURATE","Merge 'Гомель' -> 'Gomel' via EXPLICIT_MAP; distance=0.123 km; timeline=OVERLAP."
"(BLANK_CITY) [Belarus] -> Гонолес","Belarus","5","0","53.967214","27.273462","2013-05-24T04:27:44Z","2018-09-29T11:04:17Z","5","Крыжовка | Минский слаломный канал | Ислочь | Enchanted Forest | Дот","2013-05-24T04:27:44Z::Крыжовка || 2013-05-25T10:31:56Z::Минский слаломный канал || 2017-03-04T13:56:54Z::Ислочь || 2018-09-29T10:04:49Z::Enchanted Forest || 2018-09-29T11:04:17Z::Дот","blank city belarus гонолес","BLANK_CITY_INFERRED","Гонолес","Gonoles",,"UNKNOWN","NEEDS_HUMAN_ATTENTION","Inferred blank city rows -> 'Gonoles' using country + coordinates + timeline; distance=n/a; timeline=UNKNOWN."
"Гонолес","Belarus","5","5","53.9916","27.3182","2013-05-23T05:21:53Z","2018-10-21T15:12:51Z","5","Республиканский Центр Олимпийской Подготовки по Гребным Видам Спорта | Гонолес","2013-05-23T05:21:53Z::Республиканский Центр Олимпийской Подготовки по Гребным Видам Спорта || 2013-05-24T05:16:44Z::Республиканский Центр Олимпийской Подготовки по Гребным Видам Спорта || 2013-05-25T07:59:36Z::Республиканский Центр Олимпийской Подготовки по Гребным Видам Спорта || 2013-05-26T07:08:35Z::Республиканский Центр Олимпийской Подготовки по Гребным Видам Спорта || 2018-10-21T15:12:51Z::Гонолес","гонолес","EXPLICIT_MAP","Gonoles","Gonoles",,"UNKNOWN","NEEDS_HUMAN_ATTENTION","Merge 'Гонолес' -> 'Gonoles' via EXPLICIT_MAP; distance=n/a; timeline=UNKNOWN."
"(BLANK_CITY) [Belarus] -> Gorodeya","Belarus","1","0","53.245843","26.275213","2013-09-29T07:31:19Z","2013-09-29T07:31:19Z","1","Магазин Кореличское Райпо","2013-09-29T07:31:19Z::Магазин Кореличское Райпо","blank city belarus gorodeya","BLANK_CITY_INFERRED","Gorodeya","Gorodeya","19.107","NO_OVERLAP","NEEDS_HUMAN_ATTENTION","Inferred blank city rows -> 'Gorodeya' using country + coordinates + timeline; distance=19.107 km; timeline=NO_OVERLAP."
"Gorodeya","Belarus","1","1","53.3146","26.5386","2013-09-29T06:07:46Z","2013-09-29T06:07:46Z","1","Ж/д станция Городея","2013-09-29T06:07:46Z::Ж/д станция Городея","gorodeya","PASS_THROUGH_SINGLETON","","Gorodeya","0","OVERLAP","ACCURATE","Keep 'Gorodeya' as canonical city via PASS_THROUGH_SINGLETON; timeline=OVERLAP."
"(BLANK_CITY) [Belarus] -> Grigorovshchina","Belarus","1","0","55.82083","27.63154","2025-11-21T23:15:34Z","2025-11-21T23:15:34Z","1","Duty Free Helen & Valery","2025-11-21T23:15:34Z::Duty Free Helen & Valery","blank city belarus grigorovshchina","BLANK_CITY_INFERRED","Grigorovshchina","Grigorovshchina","0.09","NO_OVERLAP","ACCURATE","Inferred blank city rows -> 'Grigorovshchina' using country + coordinates + timeline; distance=0.09 km; timeline=NO_OVERLAP."
"Grigorovshchina","Belarus","2","2","55.8211","27.6329","2025-11-08T11:59:31Z","2025-11-21T21:57:58Z","2","Пункт пропуска «Григоровщина»","2025-11-08T11:59:31Z::Пункт пропуска «Григоровщина» || 2025-11-21T21:57:58Z::Пункт пропуска «Григоровщина»","grigorovshchina","PASS_THROUGH_SINGLETON","","Grigorovshchina","0","OVERLAP","ACCURATE","Keep 'Grigorovshchina' as canonical city via PASS_THROUGH_SINGLETON; timeline=OVERLAP."
"(BLANK_CITY) [Belarus] -> Grodno","Belarus","1","0","53.701082","23.839835","2025-04-12T12:50:21Z","2025-04-12T12:50:21Z","1","Кольцо Дзержинского","2025-04-12T12:50:21Z::Кольцо Дзержинского","blank city belarus grodno","BLANK_CITY_INFERRED","Grodno","Grodno","1.911","OVERLAP","ACCURATE","Inferred blank city rows -> 'Grodno' using country + coordinates + timeline; distance=1.911 km; timeline=OVERLAP."
"Grodno","Belarus","6","6","53.6839","23.8403","2021-11-06T16:44:50Z","2025-04-12T16:19:51Z","6","Поезд #732Ба Гродно - Минск | У Груши | Бюст Ожешко","2021-11-06T16:44:50Z::Поезд #732Ба Гродно - Минск || 2022-07-17T16:33:31Z::Поезд #732Ба Гродно - Минск || 2025-02-08T09:29:52Z::У Груши || 2025-02-08T20:58:43Z::Бюст Ожешко || 2025-03-09T15:52:00Z::Бюст Ожешко || 2025-04-12T16:19:51Z::Бюст Ожешко","grodno","PASS_THROUGH_SINGLETON","","Grodno","0","OVERLAP","ACCURATE","Keep 'Grodno' as canonical city via PASS_THROUGH_SINGLETON; timeline=OVERLAP."
"(BLANK_CITY) [Belarus] -> Gudogay","Belarus","2","0","54.596462","25.893112","2022-10-27T21:04:28Z","2022-10-31T00:40:33Z","2","Пограничный контроль на станции Гудогай","2022-10-27T21:04:28Z::Пограничный контроль на станции Гудогай || 2022-10-31T00:40:33Z::Пограничный контроль на станции Гудогай","blank city belarus gudogay","BLANK_CITY_INFERRED","Gudogay","Gudogay","2.263","OVERLAP","ACCURATE","Inferred blank city rows -> 'Gudogay' using country + coordinates + timeline; distance=2.263 km; timeline=OVERLAP."
"Gudogay","Belarus","7","7","54.5762","25.8964","2018-01-06T19:38:02Z","2022-10-31T00:40:19Z","7","Станция «Гудогай» | Касьцёл Наведзінаў Найсьв. Панны Марыі","2018-01-06T19:38:02Z::Станция «Гудогай» || 2018-10-13T04:40:50Z::Станция «Гудогай» || 2018-11-04T13:24:23Z::Касьцёл Наведзінаў Найсьв. Панны Марыі || 2018-11-04T14:10:02Z::Станция «Гудогай» || 2019-07-06T04:42:09Z::Станция «Гудогай» || 2022-10-27T21:03:03Z::Станция «Гудогай» || 2022-10-31T00:40:19Z::Станция «Гудогай»","gudogay","PASS_THROUGH_SINGLETON","","Gudogay","0","OVERLAP","ACCURATE","Keep 'Gudogay' as canonical city via PASS_THROUGH_SINGLETON; timeline=OVERLAP."
"stancyja Hudahaj","Belarus","2","2","54.5954","25.8947","2018-11-04T14:02:39Z","2019-07-06T17:28:10Z","2","Магазин Анастасия","2018-11-04T14:02:39Z::Магазин Анастасия || 2019-07-06T17:28:10Z::Магазин Анастасия","stancyja hudahaj","EXPLICIT_MAP","Gudogay","Gudogay","2.138","OVERLAP","ACCURATE","Merge 'stancyja Hudahaj' -> 'Gudogay' via EXPLICIT_MAP; distance=2.138 km; timeline=OVERLAP."
"(BLANK_CITY) [Belarus] -> Haradzišča","Belarus","5","0","53.820942","27.185231","2019-07-28T11:23:42Z","2024-08-11T13:11:13Z","5","Фанипольский сквер | Гора Дзержинская | Тресковщина (Траскоўшчына) | Родник Юцковский | Чыкi/Чики/Chiki","2019-07-28T11:23:42Z::Фанипольский сквер || 2021-04-11T12:29:39Z::Гора Дзержинская || 2021-04-11T13:37:47Z::Тресковщина (Траскоўшчына) || 2024-08-11T12:31:47Z::Родник Юцковский || 2024-08-11T13:11:13Z::Чыкi/Чики/Chiki","blank city belarus haradzisca","BLANK_CITY_INFERRED","Haradzišča","Haradzishcha",,"UNKNOWN","NEEDS_HUMAN_ATTENTION","Inferred blank city rows -> 'Haradzishcha' using country + coordinates + timeline; distance=n/a; timeline=UNKNOWN."
"Haradzišča","Belarus","4","4","53.8282","27.3373","2019-04-14T07:07:17Z","2024-08-11T14:05:11Z","4","Гарадзішча X-XI ст. / Городище X-Xi В. | Менка","2019-04-14T07:07:17Z::Гарадзішча X-XI ст. / Городище X-Xi В. || 2021-04-11T10:07:32Z::Гарадзішча X-XI ст. / Городище X-Xi В. || 2024-08-11T13:58:33Z::Менка || 2024-08-11T14:05:11Z::Гарадзішча X-XI ст. / Городище X-Xi В.","haradzisca","EXPLICIT_MAP","Haradzishcha","Haradzishcha",,"UNKNOWN","NEEDS_HUMAN_ATTENTION","Merge 'Haradzišča' -> 'Haradzishcha' via EXPLICIT_MAP; distance=n/a; timeline=UNKNOWN."
"Городище","Belarus","2","2","53.8304","27.3389","2024-08-11T13:55:30Z","2024-08-11T14:22:05Z","2","Городище | Пахаванне Роду Пішчалаў У Гарадзішчы","2024-08-11T13:55:30Z::Городище || 2024-08-11T14:22:05Z::Пахаванне Роду Пішчалаў У Гарадзішчы","городище","EXPLICIT_MAP","Haradzishcha","Haradzishcha",,"UNKNOWN","NEEDS_HUMAN_ATTENTION","Merge 'Городище' -> 'Haradzishcha' via EXPLICIT_MAP; distance=n/a; timeline=UNKNOWN."
"(BLANK_CITY) [Belarus] -> Городьки","Belarus","6","0","54.249299","26.430914","2018-09-01T10:25:03Z","2018-10-20T13:17:15Z","6","Замковая гора ""Гарадзiшча"" | Maloe Zaprudzje | Деревня Лоск | д. Малое Запрудзе | д. Городьки","2018-09-01T10:25:03Z::Замковая гора ""Гарадзiшча"" || 2018-09-01T11:10:02Z::Maloe Zaprudzje || 2018-10-20T11:31:21Z::Замковая гора ""Гарадзiшча"" || 2018-10-20T11:54:04Z::Деревня Лоск || 2018-10-20T12:53:40Z::д. Малое Запрудзе || 2018-10-20T13:17:15Z::д. Городьки","blank city belarus городьки","BLANK_CITY_INFERRED","Городьки","Haradzki",,"UNKNOWN","NEEDS_HUMAN_ATTENTION","Inferred blank city rows -> 'Haradzki' using country + coordinates + timeline; distance=n/a; timeline=UNKNOWN."
"Городьки","Belarus","2","2","54.2135","26.4387","2018-10-20T13:20:52Z","2018-10-20T13:31:15Z","2","Родны Кут | Магазин Ольга","2018-10-20T13:20:52Z::Родны Кут || 2018-10-20T13:31:15Z::Магазин Ольга","городьки","EXPLICIT_MAP","Haradzki","Haradzki",,"UNKNOWN","NEEDS_HUMAN_ATTENTION","Merge 'Городьки' -> 'Haradzki' via EXPLICIT_MAP; distance=n/a; timeline=UNKNOWN."
"(BLANK_CITY) [Belarus] -> Hrodna","Belarus","32","0","53.67594","23.854195","2014-07-03T05:04:00Z","2025-08-02T13:43:09Z","0","","","blank city belarus hrodna","BLANK_CITY_INFERRED","Hrodna","Hrodna","1.395","OVERLAP","ACCURATE","Inferred blank city rows -> 'Hrodna' using country + coordinates + timeline; distance=1.395 km; timeline=OVERLAP."
"Hrodna","Belarus","375","375","53.6807","23.8346","2014-07-03T02:38:13Z","2025-08-02T13:17:47Z","0","","","hrodna","PASS_THROUGH_SINGLETON","","Hrodna","0","OVERLAP","ACCURATE","Keep 'Hrodna' as canonical city via PASS_THROUGH_SINGLETON; timeline=OVERLAP."
"(BLANK_CITY) [Belarus] -> Ishkol’d’","Belarus","1","0","53.34232","26.444386","2023-04-03T01:19:30Z","2023-04-03T01:19:30Z","1","Зона отдыха","2023-04-03T01:19:30Z::Зона отдыха","blank city belarus ishkol d","BLANK_CITY_INFERRED","Ishkol’d’","Ishkol’d’","1.443","NO_OVERLAP","ACCURATE","Inferred blank city rows -> 'Ishkol’d’' using country + coordinates + timeline; distance=1.443 km; timeline=NO_OVERLAP."
"Ishkol’d’","Belarus","1","1","53.3338","26.428","2015-05-02T13:01:09Z","2015-05-02T13:01:09Z","1","Троицкий костёл","2015-05-02T13:01:09Z::Троицкий костёл","ishkol d","PASS_THROUGH_SINGLETON","","Ishkol’d’","0","OVERLAP","ACCURATE","Keep 'Ishkol’d’' as canonical city via PASS_THROUGH_SINGLETON; timeline=OVERLAP."
"Ivenets","Belarus","2","2","53.8912","26.7391","2018-09-22T12:25:23Z","2018-09-22T12:31:03Z","2","Ивенец | Касцел Святога Міхаіла Араханёла","2018-09-22T12:25:23Z::Ивенец || 2018-09-22T12:31:03Z::Касцел Святога Міхаіла Араханёла","ivenets","PASS_THROUGH_SINGLETON","","Ivenets","0","OVERLAP","ACCURATE","Keep 'Ivenets' as canonical city via PASS_THROUGH_SINGLETON; timeline=OVERLAP."
"(BLANK_CITY) [Belarus] -> Kalinkavichy","Belarus","8","0","52.124947","29.311971","2020-08-29T01:59:18Z","2020-08-30T11:17:01Z","8","Калинковичи | Район ""Бассейн"" | АЗС-43 Беларуснефть | Парк культуры и отдыха | Pizza Smile | Лесхоз Калинковичи | Автодорога Р131","2020-08-29T01:59:18Z::Калинковичи || 2020-08-29T03:10:16Z::Район ""Бассейн"" || 2020-08-29T08:04:29Z::АЗС-43 Беларуснефть || 2020-08-29T11:02:42Z::Парк культуры и отдыха || 2020-08-29T13:16:54Z::Pizza Smile || 2020-08-29T16:47:37Z::Лесхоз Калинковичи || 2020-08-29T19:48:17Z::АЗС-43 Беларуснефть || 2020-08-30T11:17:01Z::Автодорога Р131","blank city belarus kalinkavichy","BLANK_CITY_INFERRED","Kalinkavichy","Kalinkavichy","1.07","OVERLAP","ACCURATE","Inferred blank city rows -> 'Kalinkavichy' using country + coordinates + timeline; distance=1.07 km; timeline=OVERLAP."
"Kalinkavichy","Belarus","15","15","52.1284","29.3266","2020-08-29T02:03:30Z","2020-08-30T21:16:40Z","0","","","kalinkavichy","PASS_THROUGH_SINGLETON","","Kalinkavichy","0","OVERLAP","ACCURATE","Keep 'Kalinkavichy' as canonical city via PASS_THROUGH_SINGLETON; timeline=OVERLAP."
"Kalinkavičy","Belarus","6","6","52.1245","29.3231","2020-08-29T06:28:22Z","2020-08-30T21:12:23Z","6","Улица 50 Лет Октября | Фрешкофф | Улица Советская | Мемориал Афганцам | Yandex Taxi","2020-08-29T06:28:22Z::Улица 50 Лет Октября || 2020-08-29T06:39:29Z::Фрешкофф || 2020-08-29T11:36:33Z::Улица Советская || 2020-08-29T12:02:36Z::Мемориал Афганцам || 2020-08-30T08:21:05Z::Улица 50 Лет Октября || 2020-08-30T21:12:23Z::Yandex Taxi","kalinkavicy","EXPLICIT_MAP","Kalinkavichy","Kalinkavichy","0.495","OVERLAP","ACCURATE","Merge 'Kalinkavičy' -> 'Kalinkavichy' via EXPLICIT_MAP; distance=0.495 km; timeline=OVERLAP."
"Kalodziščy","Belarus","1","1","53.9462","27.7751","2019-07-16T17:42:40Z","2019-07-16T17:42:40Z","1","Евроопт Market","2019-07-16T17:42:40Z::Евроопт Market","kalodziscy","PASS_THROUGH_SINGLETON","","Kalodziščy","0","OVERLAP","ACCURATE","Keep 'Kalodziščy' as canonical city via PASS_THROUGH_SINGLETON; timeline=OVERLAP."
"(BLANK_CITY) [Belarus] -> Kamianiuki","Belarus","2","0","52.546939","23.797508","2024-07-20T18:45:49Z","2024-07-21T09:45:08Z","2","Каменюки | Автодорога Р83","2024-07-20T18:45:49Z::Каменюки || 2024-07-21T09:45:08Z::Автодорога Р83","blank city belarus kamianiuki","BLANK_CITY_INFERRED","Kamianiuki","Kamianiuki","0.856","OVERLAP","ACCURATE","Inferred blank city rows -> 'Kamianiuki' using country + coordinates + timeline; distance=0.856 km; timeline=OVERLAP."
"Kamianiuki","Belarus","1","1","52.5545","23.7951","2024-07-20T18:57:29Z","2024-07-20T18:57:29Z","1","Белоруснефть","2024-07-20T18:57:29Z::Белоруснефть","kamianiuki","PASS_THROUGH_SINGLETON","","Kamianiuki","0","OVERLAP","ACCURATE","Keep 'Kamianiuki' as canonical city via PASS_THROUGH_SINGLETON; timeline=OVERLAP."
"(BLANK_CITY) [Belarus] -> Kamyanyetski Rayon","Belarus","3","0","52.586771","23.888936","2024-07-20T16:20:13Z","2024-07-20T17:44:01Z","3","Кпп ""Белы Лясок"" | Belovezhskaya Pushcha National Park (Нацыянальны парк Белавежская пушча) | Велотропа ""Звериный переход""","2024-07-20T16:20:13Z::Кпп ""Белы Лясок"" || 2024-07-20T16:20:45Z::Belovezhskaya Pushcha National Park (Нацыянальны парк Белавежская пушча) || 2024-07-20T17:44:01Z::Велотропа ""Звериный переход""","blank city belarus kamyanyetski rayon","BLANK_CITY_INFERRED","Kamyanyetski Rayon","Kamyanyetski Rayon","6.126","NO_OVERLAP","NEEDS_HUMAN_ATTENTION","Inferred blank city rows -> 'Kamyanyetski Rayon' using country + coordinates + timeline; distance=6.126 km; timeline=NO_OVERLAP."
"Kamyanyetski Rayon","Belarus","1","1","52.572","23.8016","2024-07-20T17:52:50Z","2024-07-20T17:52:50Z","1","Гостиничный комплекс «Каменюки». Корпус 4","2024-07-20T17:52:50Z::Гостиничный комплекс «Каменюки». Корпус 4","kamyanyetski rayon","PASS_THROUGH_SINGLETON","","Kamyanyetski Rayon","0","OVERLAP","ACCURATE","Keep 'Kamyanyetski Rayon' as canonical city via PASS_THROUGH_SINGLETON; timeline=OVERLAP."
"Karpovka","Belarus","2","2","52.0223","30.9058","2018-07-07T11:18:35Z","2018-07-07T11:23:27Z","2","Карповка | Магазин","2018-07-07T11:18:35Z::Карповка || 2018-07-07T11:23:27Z::Магазин","karpovka","PASS_THROUGH_SINGLETON","","Karpovka","0","OVERLAP","ACCURATE","Keep 'Karpovka' as canonical city via PASS_THROUGH_SINGLETON; timeline=OVERLAP."
"(BLANK_CITY) [Belarus] -> Хотислав","Belarus","2","0","51.70432","24.174524","2018-06-22T20:03:02Z","2019-09-06T20:44:03Z","2","Дизель Хотислав - Ковель","2018-06-22T20:03:02Z::Дизель Хотислав - Ковель || 2019-09-06T20:44:03Z::Дизель Хотислав - Ковель","blank city belarus хотислав","BLANK_CITY_INFERRED","Хотислав","Khotislav",,"UNKNOWN","NEEDS_HUMAN_ATTENTION","Inferred blank city rows -> 'Khotislav' using country + coordinates + timeline; distance=n/a; timeline=UNKNOWN."
"Хотислав","Belarus","2","2","51.7045","24.1745","2018-06-22T19:38:33Z","2019-09-06T19:23:28Z","2","Хотиcлав","2018-06-22T19:38:33Z::Хотиcлав || 2019-09-06T19:23:28Z::Хотиcлав","хотислав","EXPLICIT_MAP","Khotislav","Khotislav",,"UNKNOWN","NEEDS_HUMAN_ATTENTION","Merge 'Хотислав' -> 'Khotislav' via EXPLICIT_MAP; distance=n/a; timeline=UNKNOWN."
"(BLANK_CITY) [Belarus] -> Kochergi","Belarus","3","0","54.85323","26.864396","2024-05-25T11:29:28Z","2024-05-26T08:18:55Z","3","Туристическая Стоянка «Кочерги» | Озеро Нарочь","2024-05-25T11:29:28Z::Туристическая Стоянка «Кочерги» || 2024-05-25T16:10:54Z::Озеро Нарочь || 2024-05-26T08:18:55Z::Туристическая Стоянка «Кочерги»","blank city belarus kochergi","BLANK_CITY_INFERRED","Kochergi","Kochergi","2.718","NO_OVERLAP","ACCURATE","Inferred blank city rows -> 'Kochergi' using country + coordinates + timeline; distance=2.718 km; timeline=NO_OVERLAP."
"Kochergi","Belarus","1","1","54.8553","26.9067","2024-05-25T10:32:13Z","2024-05-25T10:32:13Z","1","Кочерги","2024-05-25T10:32:13Z::Кочерги","kochergi","PASS_THROUGH_SINGLETON","","Kochergi","0","OVERLAP","ACCURATE","Keep 'Kochergi' as canonical city via PASS_THROUGH_SINGLETON; timeline=OVERLAP."
"(BLANK_CITY) [Belarus] -> Kolodishchi","Belarus","17","0","53.933832","27.904829","2018-08-25T09:51:49Z","2020-02-15T14:57:22Z","0","","","blank city belarus kolodishchi","BLANK_CITY_INFERRED","Kolodishchi","Kolodishchi","8.744","OVERLAP","NEEDS_HUMAN_ATTENTION","Inferred blank city rows -> 'Kolodishchi' using country + coordinates + timeline; distance=8.744 km; timeline=OVERLAP."
"Kolodishchi","Belarus","6","6","53.9476","27.7733","2018-05-29T18:44:24Z","2020-11-01T13:16:53Z","6","Заказник Глебковка | Колодищи","2018-05-29T18:44:24Z::Заказник Глебковка || 2018-09-08T15:31:23Z::Колодищи || 2019-06-09T08:00:55Z::Колодищи || 2019-06-19T18:07:10Z::Колодищи || 2019-07-16T17:33:39Z::Колодищи || 2020-11-01T13:16:53Z::Колодищи","kolodishchi","PASS_THROUGH_SINGLETON","","Kolodishchi","0","OVERLAP","ACCURATE","Keep 'Kolodishchi' as canonical city via PASS_THROUGH_SINGLETON; timeline=OVERLAP."
"(BLANK_CITY) [Belarus] -> Kopyś","Belarus","3","0","54.326904","30.282463","2024-07-13T12:10:43Z","2024-07-13T12:57:56Z","3","Александрия | Kopysj","2024-07-13T12:10:43Z::Александрия || 2024-07-13T12:29:49Z::Александрия || 2024-07-13T12:57:56Z::Kopysj","blank city belarus kopys","BLANK_CITY_INFERRED","Kopyś","Kopyś","0.799","NO_OVERLAP","ACCURATE","Inferred blank city rows -> 'Kopyś' using country + coordinates + timeline; distance=0.799 km; timeline=NO_OVERLAP."
"Kopyś","Belarus","1","1","54.3203","30.2873","2024-07-13T13:06:14Z","2024-07-13T13:06:14Z","1","Евроопт Минимаркет","2024-07-13T13:06:14Z::Евроопт Минимаркет","kopys","PASS_THROUGH_SINGLETON","","Kopyś","0","OVERLAP","ACCURATE","Keep 'Kopyś' as canonical city via PASS_THROUGH_SINGLETON; timeline=OVERLAP."
"д. Котловка","Belarus","2","2","54.7202","25.7485","2018-01-06T05:13:40Z","2018-02-17T05:02:55Z","2","Пункт пропуска «Котловка»","2018-01-06T05:13:40Z::Пункт пропуска «Котловка» || 2018-02-17T05:02:55Z::Пункт пропуска «Котловка»","д котловка","EXPLICIT_MAP","Kotlovka","Kotlovka",,"UNKNOWN","NEEDS_HUMAN_ATTENTION","Merge 'д. Котловка' -> 'Kotlovka' via EXPLICIT_MAP; distance=n/a; timeline=UNKNOWN."
"Krasnosel’tsy","Belarus","1","1","55.6393","26.9919","2023-07-22T10:23:01Z","2023-07-22T10:23:01Z","1","АЗС-23 Белоруснефть","2023-07-22T10:23:01Z::АЗС-23 Белоруснефть","krasnosel tsy","PASS_THROUGH_SINGLETON","","Krasnosel’tsy","0","OVERLAP","ACCURATE","Keep 'Krasnosel’tsy' as canonical city via PASS_THROUGH_SINGLETON; timeline=OVERLAP."
"(BLANK_CITY) [Belarus] -> Kreva","Belarus","1","0","54.337317","26.195053","2024-11-15T01:54:06Z","2024-11-15T01:54:06Z","1","Магистраль М7/E 28 Минск—Ошмяны","2024-11-15T01:54:06Z::Магистраль М7/E 28 Минск—Ошмяны","blank city belarus kreva","BLANK_CITY_INFERRED","Kreva","Kreva","6.449","NO_OVERLAP","NEEDS_HUMAN_ATTENTION","Inferred blank city rows -> 'Kreva' using country + coordinates + timeline; distance=6.449 km; timeline=NO_OVERLAP."
"Kreva","Belarus","1","1","54.3098","26.2826","2018-09-01T13:33:12Z","2018-09-01T13:33:12Z","1","Крэўскi замак / Кревский замок","2018-09-01T13:33:12Z::Крэўскi замак / Кревский замок","kreva","PASS_THROUGH_SINGLETON","","Kreva","0","OVERLAP","ACCURATE","Keep 'Kreva' as canonical city via PASS_THROUGH_SINGLETON; timeline=OVERLAP."
"(BLANK_CITY) [Belarus] -> Krychaw","Belarus","3","0","53.703546","31.713771","2018-06-09T15:47:20Z","2018-06-09T18:35:22Z","3","Кричев | Сож | Парк победы","2018-06-09T15:47:20Z::Кричев || 2018-06-09T17:33:02Z::Сож || 2018-06-09T18:35:22Z::Парк победы","blank city belarus krychaw","BLANK_CITY_INFERRED","Krychaw","Krychaw","0.265","OVERLAP","ACCURATE","Inferred blank city rows -> 'Krychaw' using country + coordinates + timeline; distance=0.265 km; timeline=OVERLAP."
"Kryčaŭ","Belarus","3","3","53.7164","31.7159","2018-06-09T18:18:09Z","2018-06-09T19:03:58Z","3","Танк Су-100 | Улица Комсомольская | Парк Молодёжный","2018-06-09T18:18:09Z::Танк Су-100 || 2018-06-09T18:23:15Z::Улица Комсомольская || 2018-06-09T19:03:58Z::Парк Молодёжный","krycau","EXPLICIT_MAP","Krychaw","Krychaw","1.57","OVERLAP","ACCURATE","Merge 'Kryčaŭ' -> 'Krychaw' via EXPLICIT_MAP; distance=1.57 km; timeline=OVERLAP."
"Krychaw","Belarus","7","7","53.7023","31.7172","2018-06-09T16:00:58Z","2018-06-09T19:56:22Z","7","Автостанция ""Кричев"" | Памятник Ленину | Детский Парк | Городской пляж | Городище Замковая гора | Универсам Сож | 778Б Коммунары -  Могилёв","2018-06-09T16:00:58Z::Автостанция ""Кричев"" || 2018-06-09T16:21:02Z::Памятник Ленину || 2018-06-09T16:35:22Z::Детский Парк || 2018-06-09T17:32:19Z::Городской пляж || 2018-06-09T17:41:13Z::Городище Замковая гора || 2018-06-09T17:59:57Z::Универсам Сож || 2018-06-09T19:56:22Z::778Б Коммунары -  Могилёв","krychaw","EXPLICIT_MAP","Krychaw","Krychaw","0","OVERLAP","ACCURATE","Merge 'Krychaw' -> 'Krychaw' via EXPLICIT_MAP; distance=0 km; timeline=OVERLAP."
"Lahoysk","Belarus","1","1","54.0722","27.6272","2018-09-09T06:39:00Z","2018-09-09T06:39:00Z","1","Мачаны","2018-09-09T06:39:00Z::Мачаны","lahoysk","PASS_THROUGH_SINGLETON","","Lahoysk","0","OVERLAP","ACCURATE","Keep 'Lahoysk' as canonical city via PASS_THROUGH_SINGLETON; timeline=OVERLAP."
"(BLANK_CITY) [Belarus] -> Lida","Belarus","13","0","53.8603","25.328611","2018-04-28T08:41:23Z","2025-10-19T21:38:08Z","0","","","blank city belarus lida","BLANK_CITY_INFERRED","Lida","Lida","3.802","OVERLAP","ACCURATE","Inferred blank city rows -> 'Lida' using country + coordinates + timeline; distance=3.802 km; timeline=OVERLAP."
"Hrodzyenski Rayon","Belarus","8","8","53.8915","25.305","2018-04-28T11:49:23Z","2025-10-19T15:28:58Z","8","Площадь 600-летия Лиды | Лидское Озеро | Дожиночная Площадь | Лидея","2018-04-28T11:49:23Z::Площадь 600-летия Лиды || 2018-04-28T14:08:39Z::Лидское Озеро || 2020-08-02T14:27:11Z::Площадь 600-летия Лиды || 2020-08-02T15:42:16Z::Лидское Озеро || 2023-05-06T15:29:50Z::Площадь 600-летия Лиды || 2025-10-19T15:04:59Z::Площадь 600-летия Лиды || 2025-10-19T15:21:32Z::Дожиночная Площадь || 2025-10-19T15:28:58Z::Лидея","hrodzyenski rayon","EXPLICIT_MAP","Lida","Lida","0.306","OVERLAP","ACCURATE","Merge 'Hrodzyenski Rayon' -> 'Lida' via EXPLICIT_MAP; distance=0.306 km; timeline=OVERLAP."
